{
 "places": [
  {
   "business_status": "OPERATIONAL",
   "geometry": {
    "location": {
     "lat": 41.6955632,
     "lng": -87.85792339999999
    },
    "viewport": {
     "northeast": {
      "lat": 41.69691132989271,
      "lng": -87.85653637010728
     },
     "southwest": {
      "lat": 41.69421167010727,
      "lng": -87.85923602989273
     }
    }
   },
   "icon": "https://maps.gstatic.com/mapfiles/place_api/icons/v1/png_71/park-71.png",
   "icon_background_color": "#4DB546",
   "icon_mask_base_uri": "https://maps.gstatic.com/mapfiles/place_api/icons/v2/tree_pinlet",
   "name": "Morrill Meadow",
   "photos": [
    {
     "height": 2268,
     "html_attributions": [
      "<a href=\"https://maps.google.com/maps/contrib/100397163836368717696\">raizada</a>"
     ],
     "photo_reference": "AVzFdblGbApZhYRqMWOovl3RAl2dkO4inSmrry8fn4aBwJkKDcYBfiwZSE2F-VV1rjduwLRL35LIybO5sByxgnDnztB3RLw1hC13E12fgBCvS3BWGcorzCmr6pr1AlN3N4emfWoVsG8gudZy04UPFu7Ks0zmDHaNO383lPQVOEpfVGSHIUW-9xIDbIsb",
     "width": 4032
    }
   ],
   "place_id": "ChIJ4R1caHxHDogR7xxNyvpL2QQ",
   "plus_code": {
    "compound_code": "M4WR+6R Palos Hills, Illinois",
    "global_code": "86HJM4WR+6R"
   },
   "rating": 4.6,
   "reference": "ChIJ4R1caHxHDogR7xxNyvpL2QQ",
   "scope": "GOOGLE",
   "types": [
    "tourist_attraction",
    "park",
    "point_of_interest",
    "establishment"
   ],
   "user_ratings_total": 108,
   "vicinity": "9801 W 107th St, Palos Hills"
  },
  {
   "business_status": "OPERATIONAL",
   "geometry": {
    "location": {
     "lat": 41.6739745,
     "lng": -87.8095165
    },
    "viewport": {
     "northeast": {
      "lat": 41.67532317989272,
      "lng": -87.80836157010728
     },
     "southwest": {
      "lat": 41.67262352010728,
      "lng": -87.81106122989273
     }
    }
   },
   "icon": "https://maps.gstatic.com/mapfiles/place_api/icons/v1/png_71/generic_business-71.png",
   "icon_background_color": "#7B9EB0",
   "icon_mask_base_uri": "https://maps.gstatic.com/mapfiles/place_api/icons/v2/generic_pinlet",
   "name": "North Field - Family Field",
   "opening_hours": {
    "open_now": true
   },
   "place_id": "ChIJ_WijdwA5DogRVyfcottD1jI",
   "plus_code": {
    "compound_code": "M5FR+H5 Palos Heights, Illinois",
    "global_code": "86HJM5FR+H5"
   },
   "rating": 0,
   "reference": "ChIJ_WijdwA5DogRVyfcottD1jI",
   "scope": "GOOGLE",
   "types": [
    "point_of_interest",
    "establishment"
   ],
   "user_ratings_total": 0,
   "vicinity": "Palos Heights"
  },
  {
   "business_status": "OPERATIONAL",
   "geometry": {
    "location": {
     "lat": 41.7220857,
     "lng": -87.790938
    },
    "viewport": {
     "northeast": {
      "lat": 41.72343867989272,
      "lng": -87.78952322010728
     },
     "southwest": {
      "lat": 41.72073902010728,
      "lng": -87.79222287989272
     }
    }
   },
   "icon": "https://maps.gstatic.com/mapfiles/place_api/icons/v1/png_71/generic_business-71.png",
   "icon_background_color": "#7B9EB0",
   "icon_mask_base_uri": "https://maps.gstatic.com/mapfiles/place_api/icons/v2/generic_pinlet",
   "name": "Westside Baseball of Oak Lawn",
   "photos": [
    {
     "height": 3024,
     "html_attributions": [
      "<a href=\"https://maps.google.com/maps/contrib/107130845016674728385\">Ryan Howell</a>"
     ],
     "photo_reference": "AVzFdbn4nOWWDtaaf_Mf6GSvwh0tAOrlXneEDWile93EGJgibCWNyJ5QXF3shl8d54O2U8Hm5BgvsvumWh0TjwDwVkLuaWI-2nqEbBb-zyn2UHEH1UiyuYWGHzomApKC53YY6csgN5ksbddbKBELvJpDb3ZVbdKWO1CGVPR2OSp6kTy33bm0EWnDvos",
     "width": 4032
    }
   ],
   "place_id": "ChIJW9T8f-w5DogR6kAfG3MBOc4",
   "plus_code": {
    "compound_code": "P6C5+RH Oak Lawn, Illinois",
    "global_code": "86HJP6C5+RH"
   },
   "rating": 4.4,
   "reference": "ChIJW9T8f-w5DogR6kAfG3MBOc4",
   "scope": "GOOGLE",
   "types": [
    "point_of_interest",
    "establishment"
   ],
   "user_ratings_total": 120,
   "vicinity": "9400 Oak Park Ave, Oak Lawn"
  },
  {
   "business_status": "OPERATIONAL",
   "geometry": {
    "location": {
     "lat": 41.6710921,
     "lng": -87.77229
    },
    "viewport": {
     "northeast": {
      "lat": 41.67277912989272,
      "lng": -87.77075172010727
     },
     "southwest": {
      "lat": 41.67007947010727,
      "lng": -87.77345137989272
     }
    }
   },
   "icon": "https://maps.gstatic.com/mapfiles/place_api/icons/v1/png_71/generic_business-71.png",
   "icon_background_color": "#7B9EB0",
   "icon_mask_base_uri": "https://maps.gstatic.com/mapfiles/place_api/icons/v2/generic_pinlet",
   "name": "George and June Complex Soccer Field",
   "photos": [
    {
     "height": 2350,
     "html_attributions": [
      "<a href=\"https://maps.google.com/maps/contrib/102685459531181017076\">Peter Clevering</a>"
     ],
     "photo_reference": "AVzFdbnIcPL7KuR15wcvTMg7foBgc0bplJFoZjw5o3s6UxpkRzYzJOJYVgA4ubTdKoVSUiey3dFyNTM7lJxwi89mMGmMs8-7WXHGWHgeAKm_WED9dl19khymZPUw8Aq7TGHH5gLd3PIbc3B2pc-TQygqNfzymbDQwQnZFfY8UVU5_vQzChTZU0KI-VLi",
     "width": 3580
    }
   ],
   "place_id": "ChIJe4bPkSQ7DogRGdE45-gO9dQ",
   "plus_code": {
    "compound_code": "M6CH+C3 Palos Heights, Illinois",
    "global_code": "86HJM6CH+C3"
   },
   "rating": 5,
   "reference": "ChIJe4bPkSQ7DogRGdE45-gO9dQ",
   "scope": "GOOGLE",
   "types": [
    "point_of_interest",
    "establishment"
   ],
   "user_ratings_total": 1,
   "vicinity": "6601 W College Dr, Palos Heights"
  },
  {
   "business_status": "OPERATIONAL",
   "geometry": {
    "location": {
     "lat": 41.7132985,
     "lng": -87.79329090000002
    },
    "viewport": {
     "northeast": {
      "lat": 41.71465732989273,
      "lng": -87.79204527010728
     },
     "southwest": {
      "lat": 41.71195767010728,
      "lng": -87.79474492989272
     }
    }
   },
   "icon": "https://maps.gstatic.com/mapfiles/place_api/icons/v1/png_71/generic_business-71.png",
   "icon_background_color": "#7B9EB0",
   "icon_mask_base_uri": "https://maps.gstatic.com/mapfiles/place_api/icons/v2/generic_pinlet",
   "name": "Frontier Park Field House",
   "opening_hours": {
    "open_now": false
   },
   "photos": [
    {
     "height": 2587,
     "html_attributions": [
      "<a href=\"https://maps.google.com/maps/contrib/107131129349443655409\">A Google User</a>"
     ],
     "photo_reference": "AVzFdbk7joM2H2WwNq-WWsVHi78dxNd-sEHVxAeykBp3TNJ1-GuLZuG9Ja-s5nvqr5O3OY4gTZpSnuFGQxzHojyCoLQleY-0w6uFaQncKNEY-TW5c_MW1jVqXjY8wIbWfhS1AVKtLgUxNgm2zqdLmFjy8ASAOErjzv9mAqOIHcLmV0X6pXkiuCBeUvbh",
     "width": 4095
    }
   ],
   "place_id": "ChIJASGwZpY5DogRXagBzIf_IHg",
   "plus_code": {
    "compound_code": "P674+8M Chicago Ridge, Illinois",
    "global_code": "86HJP674+8M"
   },
   "rating": 4.1,
   "reference": "ChIJASGwZpY5DogRXagBzIf_IHg",
   "scope": "GOOGLE",
   "types": [
    "gym",
    "health",
    "point_of_interest",
    "establishment"
   ],
   "user_ratings_total": 113,
   "vicinity": "9807 Sayre Ave, Chicago Ridge"
  },
  {
   "business_status": "OPERATIONAL",
   "geometry": {
    "location": {
     "lat": 41.6694317,
     "lng": -87.77072489999999
    },
    "viewport": {
     "northeast": {
      "lat": 41.67078487989271,
      "lng": -87.76941202010728
     },
     "southwest": {
      "lat": 41.66808522010727,
      "lng": -87.77211167989272
     }
    }
   },
   "icon": "https://maps.gstatic.com/mapfiles/place_api/icons/v1/png_71/generic_business-71.png",
   "icon_background_color": "#7B9EB0",
   "icon_mask_base_uri": "https://maps.gstatic.com/mapfiles/place_api/icons/v2/generic_pinlet",
   "name": "George and June Complex Soccer Field",
   "photos": [
    {
     "height": 2350,
     "html_attributions": [
      "<a href=\"https://maps.google.com/maps/contrib/102685459531181017076\">Peter Clevering</a>"
     ],
     "photo_reference": "AVzFdbllsZ1KnLgNAbFBUj3T-8vCqAeC5_2qBbsbxIjLEe1MuUnHX9Ynu5op3DMg3MOzYr2WQRMwkU45ORSx1n0Y1R1g90jRi_-SA79WQt71M5Ml12kzsE2_GA472M0vQtNEaiWNF1Pkn0nXSWOFiDIpuGPSeokOHlSuNYHbrWlyOQKGTTMpBqOFtR1v",
     "width": 3580
    }
   ],
   "place_id": "ChIJj7Kqiq87DogR9UUkwcuOim0",
   "plus_code": {
    "compound_code": "M69H+QP Palos Heights, Illinois",
    "global_code": "86HJM69H+QP"
   },
   "rating": 4.3,
   "reference": "ChIJj7Kqiq87DogR9UUkwcuOim0",
   "scope": "GOOGLE",
   "types": [
    "point_of_interest",
    "establishment"
   ],
   "user_ratings_total": 4,
   "vicinity": "6159 W Cal Sag Rd, Palos Heights"
  },
  {
   "business_status": "OPERATIONAL",
   "geometry": {
    "location": {
     "lat": 41.6722931,
     "lng": -87.8092379
    },
    "viewport": {
     "northeast": {
      "lat": 41.67381782989272,
      "lng": -87.80740407010728
     },
     "southwest": {
      "lat": 41.67111817010728,
      "lng": -87.81010372989273
     }
    }
   },
   "icon": "https://maps.gstatic.com/mapfiles/place_api/icons/v1/png_71/generic_business-71.png",
   "icon_background_color": "#7B9EB0",
   "icon_mask_base_uri": "https://maps.gstatic.com/mapfiles/place_api/icons/v2/generic_pinlet",
   "name": "Power Field 1 - Colt Field",
   "opening_hours": {
    "open_now": true
   },
   "place_id": "ChIJOUzDMwA5DogRzyuwH1N_pZ4",
   "plus_code": {
    "compound_code": "M5CR+W8 Palos Heights, Illinois",
    "global_code": "86HJM5CR+W8"
   },
   "rating": 0,
   "reference": "ChIJOUzDMwA5DogRzyuwH1N_pZ4",
   "scope": "GOOGLE",
   "types": [
    "point_of_interest",
    "establishment"
   ],
   "user_ratings_total": 0,
   "vicinity": "Palos Heights"
  },
  {
   "business_status": "OPERATIONAL",
   "geometry": {
    "location": {
     "lat": 41.7283006,
     "lng": -87.8139375
    },
    "viewport": {
     "northeast": {
      "lat": 41.72984407989272,
      "lng": -87.81259477010727
     },
     "southwest": {
      "lat": 41.72714442010728,
      "lng": -87.81529442989272
     }
    }
   },
   "icon": "https://maps.gstatic.com/mapfiles/place_api/icons/v1/png_71/generic_business-71.png",
   "icon_background_color": "#7B9EB0",
   "icon_mask_base_uri": "https://maps.gstatic.com/mapfiles/place_api/icons/v2/generic_pinlet",
   "name": "Hickory Hills Park District Soccer Field",
   "photos": [
    {
     "height": 3456,
     "html_attributions": [
      "<a href=\"https://maps.google.com/maps/contrib/102470657442082954103\">A Google User</a>"
     ],
     "photo_reference": "AVzFdbnTRx67_bXa-oLeB_XFtk1jTA7zLsi2BlJbqJiKzrCu16O3WN1vxAo260E8biJwvt7Z3ohmdYvbHsEK-xXzS7Sh3KOKihrejEvH7Nm3jdPPmwyS3VO9XzhnghK_yIv31kx6vX9WaoGvcA7hP5mWl0T5BAIfcTPtj7Das3RIEzh5yu5p3QkOxjyw",
     "width": 5184
    }
   ],
   "place_id": "ChIJocSZhWU5DogR7aN1ceTSbaQ",
   "plus_code": {
    "compound_code": "P5HP+8C Hickory Hills, Illinois",
    "global_code": "86HJP5HP+8C"
   },
   "rating": 4,
   "reference": "ChIJocSZhWU5DogR7aN1ceTSbaQ",
   "scope": "GOOGLE",
   "types": [
    "point_of_interest",
    "establishment"
   ],
   "user_ratings_total": 1,
   "vicinity": "7751 89th Pl, Hickory Hills"
  },
  {
   "business_status": "OPERATIONAL",
   "geometry": {
    "location": {
     "lat": 41.6717787,
     "lng": -87.81000569999999
    },
    "viewport": {
     "northeast": {
      "lat": 41.67441825,
      "lng": -87.80855077010727
     },
     "southwest": {
      "lat": 41.67089885,
      "lng": -87.81125042989272
     }
    }
   },
   "icon": "https://maps.gstatic.com/mapfiles/place_api/icons/v1/png_71/generic_business-71.png",
   "icon_background_color": "#7B9EB0",
   "icon_mask_base_uri": "https://maps.gstatic.com/mapfiles/place_api/icons/v2/generic_pinlet",
   "name": "Bennie Newsome Field - Mustang Field",
   "opening_hours": {
    "open_now": true
   },
   "place_id": "ChIJaZNlOQA5DogRbgzyZooK108",
   "plus_code": {
    "compound_code": "M5CQ+PX Palos Heights, Illinois",
    "global_code": "86HJM5CQ+PX"
   },
   "rating": 0,
   "reference": "ChIJaZNlOQA5DogRbgzyZooK108",
   "scope": "GOOGLE",
   "types": [
    "point_of_interest",
    "establishment"
   ],
   "user_ratings_total": 0,
   "vicinity": "Palos Heights"
  },
  {
   "business_status": "OPERATIONAL",
   "geometry": {
    "location": {
     "lat": 41.6723137,
     "lng": -87.81014139999999
    },
    "viewport": {
     "northeast": {
      "lat": 41.67427587989273,
      "lng": -87.80856962010728
     },
     "southwest": {
      "lat": 41.67157622010728,
      "lng": -87.81126927989271
     }
    }
   },
   "icon": "https://maps.gstatic.com/mapfiles/place_api/icons/v1/png_71/generic_business-71.png",
   "icon_background_color": "#7B9EB0",
   "icon_mask_base_uri": "https://maps.gstatic.com/mapfiles/place_api/icons/v2/generic_pinlet",
   "name": "Mike Davies Field - Pinto Field",
   "opening_hours": {
    "open_now": true
   },
   "place_id": "ChIJj0-mTgA5DogRm0wotBAIVBw",
   "plus_code": {
    "compound_code": "M5CQ+WW Palos Heights, Illinois",
    "global_code": "86HJM5CQ+WW"
   },
   "rating": 0,
   "reference": "ChIJj0-mTgA5DogRm0wotBAIVBw",
   "scope": "GOOGLE",
   "types": [
    "point_of_interest",
    "establishment"
   ],
   "user_ratings_total": 0,
   "vicinity": "Palos Heights"
  },
  {
   "business_status": "OPERATIONAL",
   "geometry": {
    "location": {
     "lat": 41.6720651,
     "lng": -87.8078692
    },
    "viewport": {
     "northeast": {
      "lat": 41.67370902989272,
      "lng": -87.80657392010727
     },
     "southwest": {
      "lat": 41.67100937010728,
      "lng": -87.8092735798927
     }
    }
   },
   "icon": "https://maps.gstatic.com/mapfiles/place_api/icons/v1/png_71/generic_business-71.png",
   "icon_background_color": "#7B9EB0",
   "icon_mask_base_uri": "https://maps.gstatic.com/mapfiles/place_api/icons/v2/generic_pinlet",
   "name": "Power Field 2",
   "opening_hours": {
    "open_now": true
   },
   "place_id": "ChIJC84cAgA5DogReEpk7OsDDK4",
   "plus_code": {
    "compound_code": "M5CR+RV Palos Heights, Illinois",
    "global_code": "86HJM5CR+RV"
   },
   "rating": 0,
   "reference": "ChIJC84cAgA5DogReEpk7OsDDK4",
   "scope": "GOOGLE",
   "types": [
    "point_of_interest",
    "establishment"
   ],
   "user_ratings_total": 0,
   "vicinity": "Palos Heights"
  },
  {
   "business_status": "OPERATIONAL",
   "geometry": {
    "location": {
     "lat": 41.6728839,
     "lng": -87.8100633
    },
    "viewport": {
     "northeast": {
      "lat": 41.67455992989272,
      "lng": -87.80861127010726
     },
     "southwest": {
      "lat": 41.67186027010728,
      "lng": -87.81131092989271
     }
    }
   },
   "icon": "https://maps.gstatic.com/mapfiles/place_api/icons/v1/png_71/generic_business-71.png",
   "icon_background_color": "#7B9EB0",
   "icon_mask_base_uri": "https://maps.gstatic.com/mapfiles/place_api/icons/v2/generic_pinlet",
   "name": "Bronco Field",
   "opening_hours": {
    "open_now": true
   },
   "place_id": "ChIJuzn8SwA5DogRPPwgiyF07bk",
   "plus_code": {
    "compound_code": "M5FQ+5X Palos Heights, Illinois",
    "global_code": "86HJM5FQ+5X"
   },
   "rating": 0,
   "reference": "ChIJuzn8SwA5DogRPPwgiyF07bk",
   "scope": "GOOGLE",
   "types": [
    "point_of_interest",
    "establishment"
   ],
   "user_ratings_total": 0,
   "vicinity": "Palos Heights"
  },
  {
   "business_status": "OPERATIONAL",
   "geometry": {
    "location": {
     "lat": 41.6955632,
     "lng": -87.85792339999999
    },
    "viewport": {
     "northeast": {
      "lat": 41.69691132989271,
      "lng": -87.85653637010728
     },
     "southwest": {
      "lat": 41.69421167010727,
      "lng": -87.85923602989273
     }
    }
   },
   "icon": "https://maps.gstatic.com/mapfiles/place_api/icons/v1/png_71/park-71.png",
   "icon_background_color": "#4DB546",
   "icon_mask_base_uri": "https://maps.gstatic.com/mapfiles/place_api/icons/v2/tree_pinlet",
   "name": "Morrill Meadow",
   "photos": [
    {
     "height": 2268,
     "html_attributions": [
      "<a href=\"https://maps.google.com/maps/contrib/100397163836368717696\">raizada</a>"
     ],
     "photo_reference": "AVzFdblFJj5cMlpw3KduccI4eiRp3-5KwgIdkrTjPBMda-qZrTiFJBYhvbUGkR_Ik9YW1-oNa-SSb6DF9PTvoms4tixM2BkNb9LDvjfwBFMdeLqYC5fjTGE6gg0nkw--xD4QBoH_7pQM0sGPENMzLZ-aL7HKmw9TTvSIebyOn6617EBKLYKF_op4TU7D",
     "width": 4032
    }
   ],
   "place_id": "ChIJ4R1caHxHDogR7xxNyvpL2QQ",
   "plus_code": {
    "compound_code": "M4WR+6R Palos Hills, Illinois",
    "global_code": "86HJM4WR+6R"
   },
   "rating": 4.6,
   "reference": "ChIJ4R1caHxHDogR7xxNyvpL2QQ",
   "scope": "GOOGLE",
   "types": [
    "tourist_attraction",
    "park",
    "point_of_interest",
    "establishment"
   ],
   "user_ratings_total": 108,
   "vicinity": "9801 W 107th St, Palos Hills"
  },
  {
   "business_status": "OPERATIONAL",
   "geometry": {
    "location": {
     "lat": 41.6728057,
     "lng": -87.8092233
    },
    "viewport": {
     "northeast": {
      "lat": 41.67401972989273,
      "lng": -87.80739612010728
     },
     "southwest": {
      "lat": 41.67132007010728,
      "lng": -87.81009577989272
     }
    }
   },
   "icon": "https://maps.gstatic.com/mapfiles/place_api/icons/v1/png_71/generic_business-71.png",
   "icon_background_color": "#7B9EB0",
   "icon_mask_base_uri": "https://maps.gstatic.com/mapfiles/place_api/icons/v2/generic_pinlet",
   "name": "Pony Field",
   "opening_hours": {
    "open_now": true
   },
   "place_id": "ChIJzdhTXgA5DogRFbkq4ZlX8Ic",
   "plus_code": {
    "compound_code": "M5FR+48 Palos Heights, Illinois",
    "global_code": "86HJM5FR+48"
   },
   "rating": 0,
   "reference": "ChIJzdhTXgA5DogRFbkq4ZlX8Ic",
   "scope": "GOOGLE",
   "types": [
    "point_of_interest",
    "establishment"
   ],
   "user_ratings_total": 0,
   "vicinity": "Palos Heights"
  },
  {
   "business_status": "OPERATIONAL",
   "geometry": {
    "location": {
     "lat": 41.710925,
     "lng": -87.772486
    },
    "viewport": {
     "northeast": {
      "lat": 41.71208397989272,
      "lng": -87.77111077010727
     },
     "southwest": {
      "lat": 41.70938432010728,
      "lng": -87.77381042989272
     }
    }
   },
   "icon": "https://maps.gstatic.com/mapfiles/place_api/icons/v1/png_71/generic_business-71.png",
   "icon_background_color": "#7B9EB0",
   "icon_mask_base_uri": "https://maps.gstatic.com/mapfiles/place_api/icons/v2/generic_pinlet",
   "name": "Columbus Manor Baseball Field",
   "photos": [
    {
     "height": 4032,
     "html_attributions": [
      "<a href=\"https://maps.google.com/maps/contrib/108192696698447621659\">Tareq Welem</a>"
     ],
     "photo_reference": "AVzFdblno1NrjuGNSTrfvdTvS7xYTwnTzdCQnYI8a7zpiMHyEOrioPCL8rBBgWjhrIjJK1IdNqwST2AmbTgCx1uPBUJFrB3Vq63Pf4QKqiY0eMmLPfSs6gHmPHDuid1ATCFf-otVMbsh__vadrQdNdcN27FxNzQufs85asAqS_YAHdFKFRZQ7j6FAv0g",
     "width": 3024
    }
   ],
   "place_id": "ChIJQ6O4KnY7DogRPZzkFR-BwZI",
   "plus_code": {
    "compound_code": "P66H+92 Oak Lawn, Illinois",
    "global_code": "86HJP66H+92"
   },
   "rating": 4,
   "reference": "ChIJQ6O4KnY7DogRPZzkFR-BwZI",
   "scope": "GOOGLE",
   "types": [
    "point_of_interest",
    "establishment"
   ],
   "user_ratings_total": 2,
   "vicinity": "10000 100th St, Oak Lawn"
  },
  {
   "business_status": "OPERATIONAL",
   "geometry": {
    "location": {
     "lat": 41.692722,
     "lng": -87.8429702
    },
    "viewport": {
     "northeast": {
      "lat": 41.69412297989271,
      "lng": -87.84121102010728
     },
     "southwest": {
      "lat": 41.69142332010727,
      "lng": -87.84391067989272
     }
    }
   },
   "icon": "https://maps.gstatic.com/mapfiles/place_api/icons/v1/png_71/generic_business-71.png",
   "icon_background_color": "#7B9EB0",
   "icon_mask_base_uri": "https://maps.gstatic.com/mapfiles/place_api/icons/v2/generic_pinlet",
   "name": "Baseball Field",
   "place_id": "ChIJeaDRTAY5DogRWSpjuvVBfTU",
   "plus_code": {
    "compound_code": "M5V4+3R Palos Hills, Illinois",
    "global_code": "86HJM5V4+3R"
   },
   "rating": 4,
   "reference": "ChIJeaDRTAY5DogRWSpjuvVBfTU",
   "scope": "GOOGLE",
   "types": [
    "point_of_interest",
    "establishment"
   ],
   "user_ratings_total": 1,
   "vicinity": "Building P, Palos Hills"
  },
  {
   "business_status": "OPERATIONAL",
   "geometry": {
    "location": {
     "lat": 41.696957,
     "lng": -87.788181
    },
    "viewport": {
     "northeast": {
      "lat": 41.69838807989272,
      "lng": -87.78694242010728
     },
     "southwest": {
      "lat": 41.69568842010727,
      "lng": -87.78964207989273
     }
    }
   },
   "icon": "https://maps.gstatic.com/mapfiles/place_api/icons/v1/png_71/generic_business-71.png",
   "icon_background_color": "#7B9EB0",
   "icon_mask_base_uri": "https://maps.gstatic.com/mapfiles/place_api/icons/v2/generic_pinlet",
   "name": "Peaks Park Baseball Field",
   "place_id": "ChIJPwLcoz85DogR-YM1OOYncX0",
   "plus_code": {
    "compound_code": "M6W6+QP Worth, Illinois",
    "global_code": "86HJM6W6+QP"
   },
   "rating": 0,
   "reference": "ChIJPwLcoz85DogR-YM1OOYncX0",
   "scope": "GOOGLE",
   "types": [
    "point_of_interest",
    "establishment"
   ],
   "user_ratings_total": 0,
   "vicinity": "6701 W 107th St, Worth"
  },
  {
   "business_status": "OPERATIONAL",
   "geometry": {
    "location": {
     "lat": 41.69189679999999,
     "lng": -87.84372959999999
    },
    "viewport": {
     "northeast": {
      "lat": 41.69323702989272,
      "lng": -87.84122654999999
     },
     "southwest": {
      "lat": 41.69053737010728,
      "lng": -87.84456395
     }
    }
   },
   "icon": "https://maps.gstatic.com/mapfiles/place_api/icons/v1/png_71/generic_business-71.png",
   "icon_background_color": "#7B9EB0",
   "icon_mask_base_uri": "https://maps.gstatic.com/mapfiles/place_api/icons/v2/generic_pinlet",
   "name": "Soccer field",
   "place_id": "ChIJPbB_NgA5DogRqoJYkNJqq9Q",
   "plus_code": {
    "compound_code": "M5R4+QG Palos Hills, Illinois",
    "global_code": "86HJM5R4+QG"
   },
   "rating": 0,
   "reference": "ChIJPbB_NgA5DogRqoJYkNJqq9Q",
   "scope": "GOOGLE",
   "types": [
    "point_of_interest",
    "establishment"
   ],
   "user_ratings_total": 0,
   "vicinity": "Health, Fitness & Recreation Center, 9000 College Pkwy, Palos Hills"
  },
  {
   "business_status": "OPERATIONAL",
   "geometry": {
    "location": {
     "lat": 41.696795,
     "lng": -87.786344
    },
    "viewport": {
     "northeast": {
      "lat": 41.69817702989273,
      "lng": -87.78500657010729
     },
     "southwest": {
      "lat": 41.69547737010728,
      "lng": -87.78770622989273
     }
    }
   },
   "icon": "https://maps.gstatic.com/mapfiles/place_api/icons/v1/png_71/generic_business-71.png",
   "icon_background_color": "#7B9EB0",
   "icon_mask_base_uri": "https://maps.gstatic.com/mapfiles/place_api/icons/v2/generic_pinlet",
   "name": "Ball Fore Baseball Field Practice",
   "photos": [
    {
     "height": 2560,
     "html_attributions": [
      "<a href=\"https://maps.google.com/maps/contrib/116221443742279201152\">A Google User</a>"
     ],
     "photo_reference": "AVzFdblE_mcHnq_WeRbKYKy3DtH-cfGnY3MlH0dPR6kClFL3qRiCeFmGRD43dBjmZBsbYRqOhHrpHSRFsS49qX9q-4CwfgXS4CvFriKSLXSEnM5hDjnasQAwMp6xA_oXAcLZkQY2CuGJEuKgbF_yC-je0B8Dat83L1qIrVuDGLn6rEEEHfYupbRhBstZ",
     "width": 1920
    }
   ],
   "place_id": "ChIJXafcLJc5DogRX9Vf6TOzu-4",
   "plus_code": {
    "compound_code": "M6W7+PF Worth, Illinois",
    "global_code": "86HJM6W7+PF"
   },
   "rating": 0,
   "reference": "ChIJXafcLJc5DogRX9Vf6TOzu-4",
   "scope": "GOOGLE",
   "types": [
    "point_of_interest",
    "establishment"
   ],
   "user_ratings_total": 0,
   "vicinity": "6701 W 107th St, Worth"
  },
  {
   "business_status": "OPERATIONAL",
   "geometry": {
    "location": {
     "lat": 41.7298324,
     "lng": -87.7758224
    },
    "viewport": {
     "northeast": {
      "lat": 41.73102977989272,
      "lng": -87.77446922010728
     },
     "southwest": {
      "lat": 41.72833012010727,
      "lng": -87.77716887989273
     }
    }
   },
   "icon": "https://maps.gstatic.com/mapfiles/place_api/icons/v1/png_71/generic_business-71.png",
   "icon_background_color": "#7B9EB0",
   "icon_mask_base_uri": "https://maps.gstatic.com/mapfiles/place_api/icons/v2/generic_pinlet",
   "name": "Baseball Field 2",
   "place_id": "ChIJmap0UeA7DogRe0lmlv27Xz4",
   "plus_code": {
    "compound_code": "P6HF+WM Oak Lawn, Illinois",
    "global_code": "86HJP6HF+WM"
   },
   "rating": 0,
   "reference": "ChIJmap0UeA7DogRe0lmlv27Xz4",
   "scope": "GOOGLE",
   "types": [
    "point_of_interest",
    "establishment"
   ],
   "user_ratings_total": 0,
   "vicinity": "6398 89th Pl, Oak Lawn"
  },
  {
   "business_status": "OPERATIONAL",
   "geometry": {
    "location": {
     "lat": 41.69153499999999,
     "lng": -87.8284498
    },
    "viewport": {
     "northeast": {
      "lat": 41.69282182989272,
      "lng": -87.82707752010728
     },
     "southwest": {
      "lat": 41.69012217010728,
      "lng": -87.82977717989273
     }
    }
   },
   "icon": "https://maps.gstatic.com/mapfiles/place_api/icons/v1/png_71/park-71.png",
   "icon_background_color": "#4DB546",
   "icon_mask_base_uri": "https://maps.gstatic.com/mapfiles/place_api/icons/v2/tree_pinlet",
   "name": "Moraine soccer field",
   "place_id": "ChIJCY1ofgA5DogRNhaNkSgZRjc",
   "plus_code": {
    "compound_code": "M5RC+JJ Palos Hills, Illinois",
    "global_code": "86HJM5RC+JJ"
   },
   "rating": 0,
   "reference": "ChIJCY1ofgA5DogRNhaNkSgZRjc",
   "scope": "GOOGLE",
   "types": [
    "park",
    "point_of_interest",
    "establishment"
   ],
   "user_ratings_total": 0,
   "vicinity": "11018 Theresa Cir, Palos Hills"
  },
  {
   "business_status": "OPERATIONAL",
   "geometry": {
    "location": {
     "lat": 41.6739745,
     "lng": -87.8095165
    },
    "viewport": {
     "northeast": {
      "lat": 41.67532317989272,
      "lng": -87.80836157010728
     },
     "southwest": {
      "lat": 41.67262352010728,
      "lng": -87.81106122989273
     }
    }
   },
   "icon": "https://maps.gstatic.com/mapfiles/place_api/icons/v1/png_71/generic_business-71.png",
   "icon_background_color": "#7B9EB0",
   "icon_mask_base_uri": "https://maps.gstatic.com/mapfiles/place_api/icons/v2/generic_pinlet",
   "name": "North Field - Family Field",
   "opening_hours": {
    "open_now": true
   },
   "place_id": "ChIJ_WijdwA5DogRVyfcottD1jI",
   "plus_code": {
    "compound_code": "M5FR+H5 Palos Heights, Illinois",
    "global_code": "86HJM5FR+H5"
   },
   "rating": 0,
   "reference": "ChIJ_WijdwA5DogRVyfcottD1jI",
   "scope": "GOOGLE",
   "types": [
    "point_of_interest",
    "establishment"
   ],
   "user_ratings_total": 0,
   "vicinity": "Palos Heights"
  },
  {
   "business_status": "OPERATIONAL",
   "geometry": {
    "location": {
     "lat": 41.7220857,
     "lng": -87.790938
    },
    "viewport": {
     "northeast": {
      "lat": 41.72343867989272,
      "lng": -87.78952322010728
     },
     "southwest": {
      "lat": 41.72073902010728,
      "lng": -87.79222287989272
     }
    }
   },
   "icon": "https://maps.gstatic.com/mapfiles/place_api/icons/v1/png_71/generic_business-71.png",
   "icon_background_color": "#7B9EB0",
   "icon_mask_base_uri": "https://maps.gstatic.com/mapfiles/place_api/icons/v2/generic_pinlet",
   "name": "Westside Baseball of Oak Lawn",
   "photos": [
    {
     "height": 3024,
     "html_attributions": [
      "<a href=\"https://maps.google.com/maps/contrib/107130845016674728385\">Ryan Howell</a>"
     ],
     "photo_reference": "AVzFdbkmHqpwFR_Yh6NM2wmIBLnJBbNh5nNdnXnyKqAV8fV24MRFzqnk4aOA0wA7st3SwGVB5rK7WYqtDMnH_PZIT5RqRDkh27nQ9DgxdsnSQX-G_alskP-Ji-9bM3nE-5QskTpQNa6nnKuAZg-2hgdml9hXnEKJGLXypMzlUOkBz2oYI5-8HyrvJNA",
     "width": 4032
    }
   ],
   "place_id": "ChIJW9T8f-w5DogR6kAfG3MBOc4",
   "plus_code": {
    "compound_code": "P6C5+RH Oak Lawn, Illinois",
    "global_code": "86HJP6C5+RH"
   },
   "rating": 4.4,
   "reference": "ChIJW9T8f-w5DogR6kAfG3MBOc4",
   "scope": "GOOGLE",
   "types": [
    "point_of_interest",
    "establishment"
   ],
   "user_ratings_total": 120,
   "vicinity": "9400 Oak Park Ave, Oak Lawn"
  },
  {
   "business_status": "OPERATIONAL",
   "geometry": {
    "location": {
     "lat": 41.6710921,
     "lng": -87.77229
    },
    "viewport": {
     "northeast": {
      "lat": 41.67277912989272,
      "lng": -87.77075172010727
     },
     "southwest": {
      "lat": 41.67007947010727,
      "lng": -87.77345137989272
     }
    }
   },
   "icon": "https://maps.gstatic.com/mapfiles/place_api/icons/v1/png_71/generic_business-71.png",
   "icon_background_color": "#7B9EB0",
   "icon_mask_base_uri": "https://maps.gstatic.com/mapfiles/place_api/icons/v2/generic_pinlet",
   "name": "George and June Complex Soccer Field",
   "photos": [
    {
     "height": 2350,
     "html_attributions": [
      "<a href=\"https://maps.google.com/maps/contrib/102685459531181017076\">Peter Clevering</a>"
     ],
     "photo_reference": "AVzFdbmnDCLbZgJp5J9XqVp-M6zAjhJlMp8kjy92yR1Q4dL5brPIa4JibJ2WrAA1EpPZaAY91dBEq5Z0DvYYzXKvusL7zc-SLVPWqw_VXdTqChBvtst3zasM7r9_9wwmJ0_up_HZSt_iblOr3ApbdFSrIsGRkTyBW0YIUHAyG5E271T8EUdDnDZtGQEk",
     "width": 3580
    }
   ],
   "place_id": "ChIJe4bPkSQ7DogRGdE45-gO9dQ",
   "plus_code": {
    "compound_code": "M6CH+C3 Palos Heights, Illinois",
    "global_code": "86HJM6CH+C3"
   },
   "rating": 5,
   "reference": "ChIJe4bPkSQ7DogRGdE45-gO9dQ",
   "scope": "GOOGLE",
   "types": [
    "point_of_interest",
    "establishment"
   ],
   "user_ratings_total": 1,
   "vicinity": "6601 W College Dr, Palos Heights"
  },
  {
   "business_status": "OPERATIONAL",
   "geometry": {
    "location": {
     "lat": 41.7132985,
     "lng": -87.79329090000002
    },
    "viewport": {
     "northeast": {
      "lat": 41.71465732989273,
      "lng": -87.79204527010728
     },
     "southwest": {
      "lat": 41.71195767010728,
      "lng": -87.79474492989272
     }
    }
   },
   "icon": "https://maps.gstatic.com/mapfiles/place_api/icons/v1/png_71/generic_business-71.png",
   "icon_background_color": "#7B9EB0",
   "icon_mask_base_uri": "https://maps.gstatic.com/mapfiles/place_api/icons/v2/generic_pinlet",
   "name": "Frontier Park Field House",
   "opening_hours": {
    "open_now": false
   },
   "photos": [
    {
     "height": 2587,
     "html_attributions": [
      "<a href=\"https://maps.google.com/maps/contrib/107131129349443655409\">A Google User</a>"
     ],
     "photo_reference": "AVzFdbl5l1-wgVMMdmjXPUYkdF_dlVu7D9oXqb82IfXLdpHQvPh-_hYnrrV9-TGoB3kdt1ZSiEgodSbkwefC_CuI8Lndsr0M8_s899gAVUPM-Or4PPmQBunlxcTXp5mPDodZZUSdEYYr3gos4oiLLXKQeMSV8BnukvlEE3h9rxfdiZtGwWIWBQXaIaRF",
     "width": 4095
    }
   ],
   "place_id": "ChIJASGwZpY5DogRXagBzIf_IHg",
   "plus_code": {
    "compound_code": "P674+8M Chicago Ridge, Illinois",
    "global_code": "86HJP674+8M"
   },
   "rating": 4.1,
   "reference": "ChIJASGwZpY5DogRXagBzIf_IHg",
   "scope": "GOOGLE",
   "types": [
    "gym",
    "health",
    "point_of_interest",
    "establishment"
   ],
   "user_ratings_total": 113,
   "vicinity": "9807 Sayre Ave, Chicago Ridge"
  },
  {
   "business_status": "OPERATIONAL",
   "geometry": {
    "location": {
     "lat": 41.6694317,
     "lng": -87.77072489999999
    },
    "viewport": {
     "northeast": {
      "lat": 41.67078487989271,
      "lng": -87.76941202010728
     },
     "southwest": {
      "lat": 41.66808522010727,
      "lng": -87.77211167989272
     }
    }
   },
   "icon": "https://maps.gstatic.com/mapfiles/place_api/icons/v1/png_71/generic_business-71.png",
   "icon_background_color": "#7B9EB0",
   "icon_mask_base_uri": "https://maps.gstatic.com/mapfiles/place_api/icons/v2/generic_pinlet",
   "name": "George and June Complex Soccer Field",
   "photos": [
    {
     "height": 2350,
     "html_attributions": [
      "<a href=\"https://maps.google.com/maps/contrib/102685459531181017076\">Peter Clevering</a>"
     ],
     "photo_reference": "AVzFdbn6L5mjZ1Y_1uDB1SLhut1_KuP_UHmrbF2bV3-CuN1_u7NiGMX5i4VtbWwc6ugt-2cLaiOueo0PIydVULWGMCPIyiJtOA8yJtMLMRZbEuB6IiWvUYlqj8CoTYNV6bXTF965Y4t3Z2oX2lG55dFeSuKdxMuUi1AKnAEMLANg54tRtDgzJI6tsmIu",
     "width": 3580
    }
   ],
   "place_id": "ChIJj7Kqiq87DogR9UUkwcuOim0",
   "plus_code": {
    "compound_code": "M69H+QP Palos Heights, Illinois",
    "global_code": "86HJM69H+QP"
   },
   "rating": 4.3,
   "reference": "ChIJj7Kqiq87DogR9UUkwcuOim0",
   "scope": "GOOGLE",
   "types": [
    "point_of_interest",
    "establishment"
   ],
   "user_ratings_total": 4,
   "vicinity": "6159 W Cal Sag Rd, Palos Heights"
  },
  {
   "business_status": "OPERATIONAL",
   "geometry": {
    "location": {
     "lat": 41.6722931,
     "lng": -87.8092379
    },
    "viewport": {
     "northeast": {
      "lat": 41.67381782989272,
      "lng": -87.80740407010728
     },
     "southwest": {
      "lat": 41.67111817010728,
      "lng": -87.81010372989273
     }
    }
   },
   "icon": "https://maps.gstatic.com/mapfiles/place_api/icons/v1/png_71/generic_business-71.png",
   "icon_background_color": "#7B9EB0",
   "icon_mask_base_uri": "https://maps.gstatic.com/mapfiles/place_api/icons/v2/generic_pinlet",
   "name": "Power Field 1 - Colt Field",
   "opening_hours": {
    "open_now": true
   },
   "place_id": "ChIJOUzDMwA5DogRzyuwH1N_pZ4",
   "plus_code": {
    "compound_code": "M5CR+W8 Palos Heights, Illinois",
    "global_code": "86HJM5CR+W8"
   },
   "rating": 0,
   "reference": "ChIJOUzDMwA5DogRzyuwH1N_pZ4",
   "scope": "GOOGLE",
   "types": [
    "point_of_interest",
    "establishment"
   ],
   "user_ratings_total": 0,
   "vicinity": "Palos Heights"
  },
  {
   "business_status": "OPERATIONAL",
   "geometry": {
    "location": {
     "lat": 41.7283006,
     "lng": -87.8139375
    },
    "viewport": {
     "northeast": {
      "lat": 41.72984407989272,
      "lng": -87.81259477010727
     },
     "southwest": {
      "lat": 41.72714442010728,
      "lng": -87.81529442989272
     }
    }
   },
   "icon": "https://maps.gstatic.com/mapfiles/place_api/icons/v1/png_71/generic_business-71.png",
   "icon_background_color": "#7B9EB0",
   "icon_mask_base_uri": "https://maps.gstatic.com/mapfiles/place_api/icons/v2/generic_pinlet",
   "name": "Hickory Hills Park District Soccer Field",
   "photos": [
    {
     "height": 3456,
     "html_attributions": [
      "<a href=\"https://maps.google.com/maps/contrib/102470657442082954103\">A Google User</a>"
     ],
     "photo_reference": "AVzFdblKRKjpKOBJ-i7PnvjwwexUlX755-_Vry8B_wQ0j-QWx_QJdcSRpkv4iAG4fKePyNkscSC_g_UdZrZ1-Y7MmvsR5GjCcWXxcCmkSvjf5QlbkiM_7D_PN04T2PQmM30P9kmUQDk6bIdER9LDQHtd4sHfiIvWy7UE2bbyrPoe4b8h25vrx5Fe6Fi3",
     "width": 5184
    }
   ],
   "place_id": "ChIJocSZhWU5DogR7aN1ceTSbaQ",
   "plus_code": {
    "compound_code": "P5HP+8C Hickory Hills, Illinois",
    "global_code": "86HJP5HP+8C"
   },
   "rating": 4,
   "reference": "ChIJocSZhWU5DogR7aN1ceTSbaQ",
   "scope": "GOOGLE",
   "types": [
    "point_of_interest",
    "establishment"
   ],
   "user_ratings_total": 1,
   "vicinity": "7751 89th Pl, Hickory Hills"
  },
  {
   "business_status": "OPERATIONAL",
   "geometry": {
    "location": {
     "lat": 41.6717787,
     "lng": -87.81000569999999
    },
    "viewport": {
     "northeast": {
      "lat": 41.67441825,
      "lng": -87.80855077010727
     },
     "southwest": {
      "lat": 41.67089885,
      "lng": -87.81125042989272
     }
    }
   },
   "icon": "https://maps.gstatic.com/mapfiles/place_api/icons/v1/png_71/generic_business-71.png",
   "icon_background_color": "#7B9EB0",
   "icon_mask_base_uri": "https://maps.gstatic.com/mapfiles/place_api/icons/v2/generic_pinlet",
   "name": "Bennie Newsome Field - Mustang Field",
   "opening_hours": {
    "open_now": true
   },
   "place_id": "ChIJaZNlOQA5DogRbgzyZooK108",
   "plus_code": {
    "compound_code": "M5CQ+PX Palos Heights, Illinois",
    "global_code": "86HJM5CQ+PX"
   },
   "rating": 0,
   "reference": "ChIJaZNlOQA5DogRbgzyZooK108",
   "scope": "GOOGLE",
   "types": [
    "point_of_interest",
    "establishment"
   ],
   "user_ratings_total": 0,
   "vicinity": "Palos Heights"
  },
  {
   "business_status": "OPERATIONAL",
   "geometry": {
    "location": {
     "lat": 41.6723137,
     "lng": -87.81014139999999
    },
    "viewport": {
     "northeast": {
      "lat": 41.67427587989273,
      "lng": -87.80856962010728
     },
     "southwest": {
      "lat": 41.67157622010728,
      "lng": -87.81126927989271
     }
    }
   },
   "icon": "https://maps.gstatic.com/mapfiles/place_api/icons/v1/png_71/generic_business-71.png",
   "icon_background_color": "#7B9EB0",
   "icon_mask_base_uri": "https://maps.gstatic.com/mapfiles/place_api/icons/v2/generic_pinlet",
   "name": "Mike Davies Field - Pinto Field",
   "opening_hours": {
    "open_now": true
   },
   "place_id": "ChIJj0-mTgA5DogRm0wotBAIVBw",
   "plus_code": {
    "compound_code": "M5CQ+WW Palos Heights, Illinois",
    "global_code": "86HJM5CQ+WW"
   },
   "rating": 0,
   "reference": "ChIJj0-mTgA5DogRm0wotBAIVBw",
   "scope": "GOOGLE",
   "types": [
    "point_of_interest",
    "establishment"
   ],
   "user_ratings_total": 0,
   "vicinity": "Palos Heights"
  },
  {
   "business_status": "OPERATIONAL",
   "geometry": {
    "location": {
     "lat": 41.6720651,
     "lng": -87.8078692
    },
    "viewport": {
     "northeast": {
      "lat": 41.67370902989272,
      "lng": -87.80657392010727
     },
     "southwest": {
      "lat": 41.67100937010728,
      "lng": -87.8092735798927
     }
    }
   },
   "icon": "https://maps.gstatic.com/mapfiles/place_api/icons/v1/png_71/generic_business-71.png",
   "icon_background_color": "#7B9EB0",
   "icon_mask_base_uri": "https://maps.gstatic.com/mapfiles/place_api/icons/v2/generic_pinlet",
   "name": "Power Field 2",
   "opening_hours": {
    "open_now": true
   },
   "place_id": "ChIJC84cAgA5DogReEpk7OsDDK4",
   "plus_code": {
    "compound_code": "M5CR+RV Palos Heights, Illinois",
    "global_code": "86HJM5CR+RV"
   },
   "rating": 0,
   "reference": "ChIJC84cAgA5DogReEpk7OsDDK4",
   "scope": "GOOGLE",
   "types": [
    "point_of_interest",
    "establishment"
   ],
   "user_ratings_total": 0,
   "vicinity": "Palos Heights"
  },
  {
   "business_status": "OPERATIONAL",
   "geometry": {
    "location": {
     "lat": 41.6728839,
     "lng": -87.8100633
    },
    "viewport": {
     "northeast": {
      "lat": 41.67455992989272,
      "lng": -87.80861127010726
     },
     "southwest": {
      "lat": 41.67186027010728,
      "lng": -87.81131092989271
     }
    }
   },
   "icon": "https://maps.gstatic.com/mapfiles/place_api/icons/v1/png_71/generic_business-71.png",
   "icon_background_color": "#7B9EB0",
   "icon_mask_base_uri": "https://maps.gstatic.com/mapfiles/place_api/icons/v2/generic_pinlet",
   "name": "Bronco Field",
   "opening_hours": {
    "open_now": true
   },
   "place_id": "ChIJuzn8SwA5DogRPPwgiyF07bk",
   "plus_code": {
    "compound_code": "M5FQ+5X Palos Heights, Illinois",
    "global_code": "86HJM5FQ+5X"
   },
   "rating": 0,
   "reference": "ChIJuzn8SwA5DogRPPwgiyF07bk",
   "scope": "GOOGLE",
   "types": [
    "point_of_interest",
    "establishment"
   ],
   "user_ratings_total": 0,
   "vicinity": "Palos Heights"
  },
  {
   "business_status": "OPERATIONAL",
   "geometry": {
    "location": {
     "lat": 41.6955632,
     "lng": -87.85792339999999
    },
    "viewport": {
     "northeast": {
      "lat": 41.69691132989271,
      "lng": -87.85653637010728
     },
     "southwest": {
      "lat": 41.69421167010727,
      "lng": -87.85923602989273
     }
    }
   },
   "icon": "https://maps.gstatic.com/mapfiles/place_api/icons/v1/png_71/park-71.png",
   "icon_background_color": "#4DB546",
   "icon_mask_base_uri": "https://maps.gstatic.com/mapfiles/place_api/icons/v2/tree_pinlet",
   "name": "Morrill Meadow",
   "photos": [
    {
     "height": 2268,
     "html_attributions": [
      "<a href=\"https://maps.google.com/maps/contrib/100397163836368717696\">raizada</a>"
     ],
     "photo_reference": "AVzFdbm8pV7OzNtJYBVVdv3VqSjoooodVDJKOnCYNlM8oShfV32W8SMg4Tz-_NOhH4J3ICvFusZQyX4ftikrQ7E9RCysLwIahZm1YWCAbijGTKsjEYwTzwQ8rHcprAZiCxN1ZCBXUacuEixQIvGISUOi4TCRxFnHr350ElWkbwosDY9Fn_Dvv0rJ6pa1",
     "width": 4032
    }
   ],
   "place_id": "ChIJ4R1caHxHDogR7xxNyvpL2QQ",
   "plus_code": {
    "compound_code": "M4WR+6R Palos Hills, Illinois",
    "global_code": "86HJM4WR+6R"
   },
   "rating": 4.6,
   "reference": "ChIJ4R1caHxHDogR7xxNyvpL2QQ",
   "scope": "GOOGLE",
   "types": [
    "tourist_attraction",
    "park",
    "point_of_interest",
    "establishment"
   ],
   "user_ratings_total": 108,
   "vicinity": "9801 W 107th St, Palos Hills"
  },
  {
   "business_status": "OPERATIONAL",
   "geometry": {
    "location": {
     "lat": 41.6728057,
     "lng": -87.8092233
    },
    "viewport": {
     "northeast": {
      "lat": 41.67401972989273,
      "lng": -87.80739612010728
     },
     "southwest": {
      "lat": 41.67132007010728,
      "lng": -87.81009577989272
     }
    }
   },
   "icon": "https://maps.gstatic.com/mapfiles/place_api/icons/v1/png_71/generic_business-71.png",
   "icon_background_color": "#7B9EB0",
   "icon_mask_base_uri": "https://maps.gstatic.com/mapfiles/place_api/icons/v2/generic_pinlet",
   "name": "Pony Field",
   "opening_hours": {
    "open_now": true
   },
   "place_id": "ChIJzdhTXgA5DogRFbkq4ZlX8Ic",
   "plus_code": {
    "compound_code": "M5FR+48 Palos Heights, Illinois",
    "global_code": "86HJM5FR+48"
   },
   "rating": 0,
   "reference": "ChIJzdhTXgA5DogRFbkq4ZlX8Ic",
   "scope": "GOOGLE",
   "types": [
    "point_of_interest",
    "establishment"
   ],
   "user_ratings_total": 0,
   "vicinity": "Palos Heights"
  },
  {
   "business_status": "OPERATIONAL",
   "geometry": {
    "location": {
     "lat": 41.710925,
     "lng": -87.772486
    },
    "viewport": {
     "northeast": {
      "lat": 41.71208397989272,
      "lng": -87.77111077010727
     },
     "southwest": {
      "lat": 41.70938432010728,
      "lng": -87.77381042989272
     }
    }
   },
   "icon": "https://maps.gstatic.com/mapfiles/place_api/icons/v1/png_71/generic_business-71.png",
   "icon_background_color": "#7B9EB0",
   "icon_mask_base_uri": "https://maps.gstatic.com/mapfiles/place_api/icons/v2/generic_pinlet",
   "name": "Columbus Manor Baseball Field",
   "photos": [
    {
     "height": 4032,
     "html_attributions": [
      "<a href=\"https://maps.google.com/maps/contrib/108192696698447621659\">Tareq Welem</a>"
     ],
     "photo_reference": "AVzFdbnxFLecQ_n1rBeEmlniJuHKEsTrAPpxqZimizwlYSDrHc2EPnQL2jIcG7ghoVsB80NOYo_f1mHQYLYt0h37sOHwEtAisVWoexYNVKpyDTdKbmdZAbFO3XhfJvLwln8eMnLLR0413jbYmKaNkLNxpMnU8zPtEtZunjRYE0X0RoZedzgPRKuobfjm",
     "width": 3024
    }
   ],
   "place_id": "ChIJQ6O4KnY7DogRPZzkFR-BwZI",
   "plus_code": {
    "compound_code": "P66H+92 Oak Lawn, Illinois",
    "global_code": "86HJP66H+92"
   },
   "rating": 4,
   "reference": "ChIJQ6O4KnY7DogRPZzkFR-BwZI",
   "scope": "GOOGLE",
   "types": [
    "point_of_interest",
    "establishment"
   ],
   "user_ratings_total": 2,
   "vicinity": "10000 100th St, Oak Lawn"
  },
  {
   "business_status": "OPERATIONAL",
   "geometry": {
    "location": {
     "lat": 41.692722,
     "lng": -87.8429702
    },
    "viewport": {
     "northeast": {
      "lat": 41.69412297989271,
      "lng": -87.84121102010728
     },
     "southwest": {
      "lat": 41.69142332010727,
      "lng": -87.84391067989272
     }
    }
   },
   "icon": "https://maps.gstatic.com/mapfiles/place_api/icons/v1/png_71/generic_business-71.png",
   "icon_background_color": "#7B9EB0",
   "icon_mask_base_uri": "https://maps.gstatic.com/mapfiles/place_api/icons/v2/generic_pinlet",
   "name": "Baseball Field",
   "place_id": "ChIJeaDRTAY5DogRWSpjuvVBfTU",
   "plus_code": {
    "compound_code": "M5V4+3R Palos Hills, Illinois",
    "global_code": "86HJM5V4+3R"
   },
   "rating": 4,
   "reference": "ChIJeaDRTAY5DogRWSpjuvVBfTU",
   "scope": "GOOGLE",
   "types": [
    "point_of_interest",
    "establishment"
   ],
   "user_ratings_total": 1,
   "vicinity": "Building P, Palos Hills"
  },
  {
   "business_status": "OPERATIONAL",
   "geometry": {
    "location": {
     "lat": 41.696957,
     "lng": -87.788181
    },
    "viewport": {
     "northeast": {
      "lat": 41.69838807989272,
      "lng": -87.78694242010728
     },
     "southwest": {
      "lat": 41.69568842010727,
      "lng": -87.78964207989273
     }
    }
   },
   "icon": "https://maps.gstatic.com/mapfiles/place_api/icons/v1/png_71/generic_business-71.png",
   "icon_background_color": "#7B9EB0",
   "icon_mask_base_uri": "https://maps.gstatic.com/mapfiles/place_api/icons/v2/generic_pinlet",
   "name": "Peaks Park Baseball Field",
   "place_id": "ChIJPwLcoz85DogR-YM1OOYncX0",
   "plus_code": {
    "compound_code": "M6W6+QP Worth, Illinois",
    "global_code": "86HJM6W6+QP"
   },
   "rating": 0,
   "reference": "ChIJPwLcoz85DogR-YM1OOYncX0",
   "scope": "GOOGLE",
   "types": [
    "point_of_interest",
    "establishment"
   ],
   "user_ratings_total": 0,
   "vicinity": "6701 W 107th St, Worth"
  },
  {
   "business_status": "OPERATIONAL",
   "geometry": {
    "location": {
     "lat": 41.69189679999999,
     "lng": -87.84372959999999
    },
    "viewport": {
     "northeast": {
      "lat": 41.69323702989272,
      "lng": -87.84122654999999
     },
     "southwest": {
      "lat": 41.69053737010728,
      "lng": -87.84456395
     }
    }
   },
   "icon": "https://maps.gstatic.com/mapfiles/place_api/icons/v1/png_71/generic_business-71.png",
   "icon_background_color": "#7B9EB0",
   "icon_mask_base_uri": "https://maps.gstatic.com/mapfiles/place_api/icons/v2/generic_pinlet",
   "name": "Soccer field",
   "place_id": "ChIJPbB_NgA5DogRqoJYkNJqq9Q",
   "plus_code": {
    "compound_code": "M5R4+QG Palos Hills, Illinois",
    "global_code": "86HJM5R4+QG"
   },
   "rating": 0,
   "reference": "ChIJPbB_NgA5DogRqoJYkNJqq9Q",
   "scope": "GOOGLE",
   "types": [
    "point_of_interest",
    "establishment"
   ],
   "user_ratings_total": 0,
   "vicinity": "Health, Fitness & Recreation Center, 9000 College Pkwy, Palos Hills"
  },
  {
   "business_status": "OPERATIONAL",
   "geometry": {
    "location": {
     "lat": 41.696795,
     "lng": -87.786344
    },
    "viewport": {
     "northeast": {
      "lat": 41.69817702989273,
      "lng": -87.78500657010729
     },
     "southwest": {
      "lat": 41.69547737010728,
      "lng": -87.78770622989273
     }
    }
   },
   "icon": "https://maps.gstatic.com/mapfiles/place_api/icons/v1/png_71/generic_business-71.png",
   "icon_background_color": "#7B9EB0",
   "icon_mask_base_uri": "https://maps.gstatic.com/mapfiles/place_api/icons/v2/generic_pinlet",
   "name": "Ball Fore Baseball Field Practice",
   "photos": [
    {
     "height": 2560,
     "html_attributions": [
      "<a href=\"https://maps.google.com/maps/contrib/116221443742279201152\">A Google User</a>"
     ],
     "photo_reference": "AVzFdbm8LoMkWQJFwP2layf-Jb7wnYgvHwC4ZjPkhS_fPc5PCoJlSrRNyDkqagTcloSeFMnJkEFVapHuBQNerZYamI0Atao1o-zUoRWMxSIc6OR1RAzAZQe4deFTNNBqy_YY7lojBktRW2Czkg4Juet7Lrr9KbXxzAuMc1bws99TevgJ-0yGX-t3kqET",
     "width": 1920
    }
   ],
   "place_id": "ChIJXafcLJc5DogRX9Vf6TOzu-4",
   "plus_code": {
    "compound_code": "M6W7+PF Worth, Illinois",
    "global_code": "86HJM6W7+PF"
   },
   "rating": 0,
   "reference": "ChIJXafcLJc5DogRX9Vf6TOzu-4",
   "scope": "GOOGLE",
   "types": [
    "point_of_interest",
    "establishment"
   ],
   "user_ratings_total": 0,
   "vicinity": "6701 W 107th St, Worth"
  },
  {
   "business_status": "OPERATIONAL",
   "geometry": {
    "location": {
     "lat": 41.7298324,
     "lng": -87.7758224
    },
    "viewport": {
     "northeast": {
      "lat": 41.73102977989272,
      "lng": -87.77446922010728
     },
     "southwest": {
      "lat": 41.72833012010727,
      "lng": -87.77716887989273
     }
    }
   },
   "icon": "https://maps.gstatic.com/mapfiles/place_api/icons/v1/png_71/generic_business-71.png",
   "icon_background_color": "#7B9EB0",
   "icon_mask_base_uri": "https://maps.gstatic.com/mapfiles/place_api/icons/v2/generic_pinlet",
   "name": "Baseball Field 2",
   "place_id": "ChIJmap0UeA7DogRe0lmlv27Xz4",
   "plus_code": {
    "compound_code": "P6HF+WM Oak Lawn, Illinois",
    "global_code": "86HJP6HF+WM"
   },
   "rating": 0,
   "reference": "ChIJmap0UeA7DogRe0lmlv27Xz4",
   "scope": "GOOGLE",
   "types": [
    "point_of_interest",
    "establishment"
   ],
   "user_ratings_total": 0,
   "vicinity": "6398 89th Pl, Oak Lawn"
  },
  {
   "business_status": "OPERATIONAL",
   "geometry": {
    "location": {
     "lat": 41.69153499999999,
     "lng": -87.8284498
    },
    "viewport": {
     "northeast": {
      "lat": 41.69282182989272,
      "lng": -87.82707752010728
     },
     "southwest": {
      "lat": 41.69012217010728,
      "lng": -87.82977717989273
     }
    }
   },
   "icon": "https://maps.gstatic.com/mapfiles/place_api/icons/v1/png_71/park-71.png",
   "icon_background_color": "#4DB546",
   "icon_mask_base_uri": "https://maps.gstatic.com/mapfiles/place_api/icons/v2/tree_pinlet",
   "name": "Moraine soccer field",
   "place_id": "ChIJCY1ofgA5DogRNhaNkSgZRjc",
   "plus_code": {
    "compound_code": "M5RC+JJ Palos Hills, Illinois",
    "global_code": "86HJM5RC+JJ"
   },
   "rating": 0,
   "reference": "ChIJCY1ofgA5DogRNhaNkSgZRjc",
   "scope": "GOOGLE",
   "types": [
    "park",
    "point_of_interest",
    "establishment"
   ],
   "user_ratings_total": 0,
   "vicinity": "11018 Theresa Cir, Palos Hills"
  },
  {
   "business_status": "OPERATIONAL",
   "geometry": {
    "location": {
     "lat": 41.6739745,
     "lng": -87.8095165
    },
    "viewport": {
     "northeast": {
      "lat": 41.67532317989272,
      "lng": -87.80836157010728
     },
     "southwest": {
      "lat": 41.67262352010728,
      "lng": -87.81106122989273
     }
    }
   },
   "icon": "https://maps.gstatic.com/mapfiles/place_api/icons/v1/png_71/generic_business-71.png",
   "icon_background_color": "#7B9EB0",
   "icon_mask_base_uri": "https://maps.gstatic.com/mapfiles/place_api/icons/v2/generic_pinlet",
   "name": "North Field - Family Field",
   "opening_hours": {
    "open_now": true
   },
   "place_id": "ChIJ_WijdwA5DogRVyfcottD1jI",
   "plus_code": {
    "compound_code": "M5FR+H5 Palos Heights, Illinois",
    "global_code": "86HJM5FR+H5"
   },
   "rating": 0,
   "reference": "ChIJ_WijdwA5DogRVyfcottD1jI",
   "scope": "GOOGLE",
   "types": [
    "point_of_interest",
    "establishment"
   ],
   "user_ratings_total": 0,
   "vicinity": "Palos Heights"
  },
  {
   "business_status": "OPERATIONAL",
   "geometry": {
    "location": {
     "lat": 41.7220857,
     "lng": -87.790938
    },
    "viewport": {
     "northeast": {
      "lat": 41.72343867989272,
      "lng": -87.78952322010728
     },
     "southwest": {
      "lat": 41.72073902010728,
      "lng": -87.79222287989272
     }
    }
   },
   "icon": "https://maps.gstatic.com/mapfiles/place_api/icons/v1/png_71/generic_business-71.png",
   "icon_background_color": "#7B9EB0",
   "icon_mask_base_uri": "https://maps.gstatic.com/mapfiles/place_api/icons/v2/generic_pinlet",
   "name": "Westside Baseball of Oak Lawn",
   "photos": [
    {
     "height": 3024,
     "html_attributions": [
      "<a href=\"https://maps.google.com/maps/contrib/107130845016674728385\">Ryan Howell</a>"
     ],
     "photo_reference": "AVzFdbnNM3ZlhIAH6dJ9wFOodug_xklzBsx7vTGza7Zc7oFXU_GBM5Zk1czs2NgnVyyPzjAbRH8dxm9Tx6XSjeDpxAbaXARQdPOxs8IjSbtuSm2jqfN7tzrwTKxuC9jbuZ8bH0rgPT5xaI88KxKjl3igSp-E5XQoYGPW90E1enp2W8A1SUe2Eoco6Vg",
     "width": 4032
    }
   ],
   "place_id": "ChIJW9T8f-w5DogR6kAfG3MBOc4",
   "plus_code": {
    "compound_code": "P6C5+RH Oak Lawn, Illinois",
    "global_code": "86HJP6C5+RH"
   },
   "rating": 4.4,
   "reference": "ChIJW9T8f-w5DogR6kAfG3MBOc4",
   "scope": "GOOGLE",
   "types": [
    "point_of_interest",
    "establishment"
   ],
   "user_ratings_total": 120,
   "vicinity": "9400 Oak Park Ave, Oak Lawn"
  },
  {
   "business_status": "OPERATIONAL",
   "geometry": {
    "location": {
     "lat": 41.6710921,
     "lng": -87.77229
    },
    "viewport": {
     "northeast": {
      "lat": 41.67277912989272,
      "lng": -87.77075172010727
     },
     "southwest": {
      "lat": 41.67007947010727,
      "lng": -87.77345137989272
     }
    }
   },
   "icon": "https://maps.gstatic.com/mapfiles/place_api/icons/v1/png_71/generic_business-71.png",
   "icon_background_color": "#7B9EB0",
   "icon_mask_base_uri": "https://maps.gstatic.com/mapfiles/place_api/icons/v2/generic_pinlet",
   "name": "George and June Complex Soccer Field",
   "photos": [
    {
     "height": 2350,
     "html_attributions": [
      "<a href=\"https://maps.google.com/maps/contrib/102685459531181017076\">Peter Clevering</a>"
     ],
     "photo_reference": "AVzFdbloykEChM1NAVSKj4dHHaMhC4QWV2Ln1mokXOHapf6wrIIH5pN336xOkujSsuTHzBBCUp-Vp98AvPULKBbFAzwf5kzH2DxUc6leXSFN7jKuvIEPRYx-L48iY3uRIf55VsFHZRSjoMfwpC_S3HVXKCY8R2au7hAuW2KBj78dEKc58m07mu3-CwxN",
     "width": 3580
    }
   ],
   "place_id": "ChIJe4bPkSQ7DogRGdE45-gO9dQ",
   "plus_code": {
    "compound_code": "M6CH+C3 Palos Heights, Illinois",
    "global_code": "86HJM6CH+C3"
   },
   "rating": 5,
   "reference": "ChIJe4bPkSQ7DogRGdE45-gO9dQ",
   "scope": "GOOGLE",
   "types": [
    "point_of_interest",
    "establishment"
   ],
   "user_ratings_total": 1,
   "vicinity": "6601 W College Dr, Palos Heights"
  },
  {
   "business_status": "OPERATIONAL",
   "geometry": {
    "location": {
     "lat": 41.7132985,
     "lng": -87.79329090000002
    },
    "viewport": {
     "northeast": {
      "lat": 41.71465732989273,
      "lng": -87.79204527010728
     },
     "southwest": {
      "lat": 41.71195767010728,
      "lng": -87.79474492989272
     }
    }
   },
   "icon": "https://maps.gstatic.com/mapfiles/place_api/icons/v1/png_71/generic_business-71.png",
   "icon_background_color": "#7B9EB0",
   "icon_mask_base_uri": "https://maps.gstatic.com/mapfiles/place_api/icons/v2/generic_pinlet",
   "name": "Frontier Park Field House",
   "opening_hours": {
    "open_now": false
   },
   "photos": [
    {
     "height": 2587,
     "html_attributions": [
      "<a href=\"https://maps.google.com/maps/contrib/107131129349443655409\">A Google User</a>"
     ],
     "photo_reference": "AVzFdblxZNA02oSI05O3P4risyVT8iA1HSKuxBTbNh3aHfHO4LJuCXYz3nsD3Ct13AfMUjRZzrvGtG_HFJUT0tezV4GsYrOfHfP0DMps9oQ3d7LOlZQDi7oya_LsT_igWwT7zF0h9lk03Zq8S0_lGgGCdwF5hEjtydcnZnRsrA5kB6uvppra_XitFttF",
     "width": 4095
    }
   ],
   "place_id": "ChIJASGwZpY5DogRXagBzIf_IHg",
   "plus_code": {
    "compound_code": "P674+8M Chicago Ridge, Illinois",
    "global_code": "86HJP674+8M"
   },
   "rating": 4.1,
   "reference": "ChIJASGwZpY5DogRXagBzIf_IHg",
   "scope": "GOOGLE",
   "types": [
    "gym",
    "point_of_interest",
    "health",
    "establishment"
   ],
   "user_ratings_total": 113,
   "vicinity": "9807 Sayre Ave, Chicago Ridge"
  },
  {
   "business_status": "OPERATIONAL",
   "geometry": {
    "location": {
     "lat": 41.6694317,
     "lng": -87.77072489999999
    },
    "viewport": {
     "northeast": {
      "lat": 41.67078487989271,
      "lng": -87.76941202010728
     },
     "southwest": {
      "lat": 41.66808522010727,
      "lng": -87.77211167989272
     }
    }
   },
   "icon": "https://maps.gstatic.com/mapfiles/place_api/icons/v1/png_71/generic_business-71.png",
   "icon_background_color": "#7B9EB0",
   "icon_mask_base_uri": "https://maps.gstatic.com/mapfiles/place_api/icons/v2/generic_pinlet",
   "name": "George and June Complex Soccer Field",
   "photos": [
    {
     "height": 2350,
     "html_attributions": [
      "<a href=\"https://maps.google.com/maps/contrib/102685459531181017076\">Peter Clevering</a>"
     ],
     "photo_reference": "AVzFdbmXreJRDO1LZE6dqF4zFmQyvCE9UScuJbhVqNp3mb-eVcbbUu-4xlDr4aaO5SssXHSZ8Hh2jeqUO3BM4maCexStYriZETkqGD8ts8r4VM0w18uoK_LnLY2lfyxohbQoF7j-nT2AQae2wVkUlHXRRWUqgZiWp_vX6vgYidaP_OYXc5BHBQDNGFYo",
     "width": 3580
    }
   ],
   "place_id": "ChIJj7Kqiq87DogR9UUkwcuOim0",
   "plus_code": {
    "compound_code": "M69H+QP Palos Heights, Illinois",
    "global_code": "86HJM69H+QP"
   },
   "rating": 4.3,
   "reference": "ChIJj7Kqiq87DogR9UUkwcuOim0",
   "scope": "GOOGLE",
   "types": [
    "point_of_interest",
    "establishment"
   ],
   "user_ratings_total": 4,
   "vicinity": "6159 W Cal Sag Rd, Palos Heights"
  },
  {
   "business_status": "OPERATIONAL",
   "geometry": {
    "location": {
     "lat": 41.6722931,
     "lng": -87.8092379
    },
    "viewport": {
     "northeast": {
      "lat": 41.67381782989272,
      "lng": -87.80740407010728
     },
     "southwest": {
      "lat": 41.67111817010728,
      "lng": -87.81010372989273
     }
    }
   },
   "icon": "https://maps.gstatic.com/mapfiles/place_api/icons/v1/png_71/generic_business-71.png",
   "icon_background_color": "#7B9EB0",
   "icon_mask_base_uri": "https://maps.gstatic.com/mapfiles/place_api/icons/v2/generic_pinlet",
   "name": "Power Field 1 - Colt Field",
   "opening_hours": {
    "open_now": true
   },
   "place_id": "ChIJOUzDMwA5DogRzyuwH1N_pZ4",
   "plus_code": {
    "compound_code": "M5CR+W8 Palos Heights, Illinois",
    "global_code": "86HJM5CR+W8"
   },
   "rating": 0,
   "reference": "ChIJOUzDMwA5DogRzyuwH1N_pZ4",
   "scope": "GOOGLE",
   "types": [
    "point_of_interest",
    "establishment"
   ],
   "user_ratings_total": 0,
   "vicinity": "Palos Heights"
  },
  {
   "business_status": "OPERATIONAL",
   "geometry": {
    "location": {
     "lat": 41.7283006,
     "lng": -87.8139375
    },
    "viewport": {
     "northeast": {
      "lat": 41.72984407989272,
      "lng": -87.81259477010727
     },
     "southwest": {
      "lat": 41.72714442010728,
      "lng": -87.81529442989272
     }
    }
   },
   "icon": "https://maps.gstatic.com/mapfiles/place_api/icons/v1/png_71/generic_business-71.png",
   "icon_background_color": "#7B9EB0",
   "icon_mask_base_uri": "https://maps.gstatic.com/mapfiles/place_api/icons/v2/generic_pinlet",
   "name": "Hickory Hills Park District Soccer Field",
   "photos": [
    {
     "height": 3456,
     "html_attributions": [
      "<a href=\"https://maps.google.com/maps/contrib/102470657442082954103\">A Google User</a>"
     ],
     "photo_reference": "AVzFdbkh-xWVMKXK8wimszw7OdfQETbLFVZ2m6WJ8Z5nXdad5eaYF-Al7s_jeM4Ry_ZWr5Z_oy3W6b9pPOuKM9mrK53UtmUj3ZRJMn859Egm3HYJNUN3gybdICDmqdaj8YddiHm88IYecuZlNkyWg-MNI67V1NyNZqx1h-PHZZ2Rk4FvNiAb2ow0h1sN",
     "width": 5184
    }
   ],
   "place_id": "ChIJocSZhWU5DogR7aN1ceTSbaQ",
   "plus_code": {
    "compound_code": "P5HP+8C Hickory Hills, Illinois",
    "global_code": "86HJP5HP+8C"
   },
   "rating": 4,
   "reference": "ChIJocSZhWU5DogR7aN1ceTSbaQ",
   "scope": "GOOGLE",
   "types": [
    "point_of_interest",
    "establishment"
   ],
   "user_ratings_total": 1,
   "vicinity": "7751 89th Pl, Hickory Hills"
  },
  {
   "business_status": "OPERATIONAL",
   "geometry": {
    "location": {
     "lat": 41.6717787,
     "lng": -87.81000569999999
    },
    "viewport": {
     "northeast": {
      "lat": 41.67441825,
      "lng": -87.80855077010727
     },
     "southwest": {
      "lat": 41.67089885,
      "lng": -87.81125042989272
     }
    }
   },
   "icon": "https://maps.gstatic.com/mapfiles/place_api/icons/v1/png_71/generic_business-71.png",
   "icon_background_color": "#7B9EB0",
   "icon_mask_base_uri": "https://maps.gstatic.com/mapfiles/place_api/icons/v2/generic_pinlet",
   "name": "Bennie Newsome Field - Mustang Field",
   "opening_hours": {
    "open_now": true
   },
   "place_id": "ChIJaZNlOQA5DogRbgzyZooK108",
   "plus_code": {
    "compound_code": "M5CQ+PX Palos Heights, Illinois",
    "global_code": "86HJM5CQ+PX"
   },
   "rating": 0,
   "reference": "ChIJaZNlOQA5DogRbgzyZooK108",
   "scope": "GOOGLE",
   "types": [
    "point_of_interest",
    "establishment"
   ],
   "user_ratings_total": 0,
   "vicinity": "Palos Heights"
  },
  {
   "business_status": "OPERATIONAL",
   "geometry": {
    "location": {
     "lat": 41.6723137,
     "lng": -87.81014139999999
    },
    "viewport": {
     "northeast": {
      "lat": 41.67427587989273,
      "lng": -87.80856962010728
     },
     "southwest": {
      "lat": 41.67157622010728,
      "lng": -87.81126927989271
     }
    }
   },
   "icon": "https://maps.gstatic.com/mapfiles/place_api/icons/v1/png_71/generic_business-71.png",
   "icon_background_color": "#7B9EB0",
   "icon_mask_base_uri": "https://maps.gstatic.com/mapfiles/place_api/icons/v2/generic_pinlet",
   "name": "Mike Davies Field - Pinto Field",
   "opening_hours": {
    "open_now": true
   },
   "place_id": "ChIJj0-mTgA5DogRm0wotBAIVBw",
   "plus_code": {
    "compound_code": "M5CQ+WW Palos Heights, Illinois",
    "global_code": "86HJM5CQ+WW"
   },
   "rating": 0,
   "reference": "ChIJj0-mTgA5DogRm0wotBAIVBw",
   "scope": "GOOGLE",
   "types": [
    "point_of_interest",
    "establishment"
   ],
   "user_ratings_total": 0,
   "vicinity": "Palos Heights"
  },
  {
   "business_status": "OPERATIONAL",
   "geometry": {
    "location": {
     "lat": 41.6720651,
     "lng": -87.8078692
    },
    "viewport": {
     "northeast": {
      "lat": 41.67370902989272,
      "lng": -87.80657392010727
     },
     "southwest": {
      "lat": 41.67100937010728,
      "lng": -87.8092735798927
     }
    }
   },
   "icon": "https://maps.gstatic.com/mapfiles/place_api/icons/v1/png_71/generic_business-71.png",
   "icon_background_color": "#7B9EB0",
   "icon_mask_base_uri": "https://maps.gstatic.com/mapfiles/place_api/icons/v2/generic_pinlet",
   "name": "Power Field 2",
   "opening_hours": {
    "open_now": true
   },
   "place_id": "ChIJC84cAgA5DogReEpk7OsDDK4",
   "plus_code": {
    "compound_code": "M5CR+RV Palos Heights, Illinois",
    "global_code": "86HJM5CR+RV"
   },
   "rating": 0,
   "reference": "ChIJC84cAgA5DogReEpk7OsDDK4",
   "scope": "GOOGLE",
   "types": [
    "point_of_interest",
    "establishment"
   ],
   "user_ratings_total": 0,
   "vicinity": "Palos Heights"
  },
  {
   "business_status": "OPERATIONAL",
   "geometry": {
    "location": {
     "lat": 41.6728839,
     "lng": -87.8100633
    },
    "viewport": {
     "northeast": {
      "lat": 41.67455992989272,
      "lng": -87.80861127010726
     },
     "southwest": {
      "lat": 41.67186027010728,
      "lng": -87.81131092989271
     }
    }
   },
   "icon": "https://maps.gstatic.com/mapfiles/place_api/icons/v1/png_71/generic_business-71.png",
   "icon_background_color": "#7B9EB0",
   "icon_mask_base_uri": "https://maps.gstatic.com/mapfiles/place_api/icons/v2/generic_pinlet",
   "name": "Bronco Field",
   "opening_hours": {
    "open_now": true
   },
   "place_id": "ChIJuzn8SwA5DogRPPwgiyF07bk",
   "plus_code": {
    "compound_code": "M5FQ+5X Palos Heights, Illinois",
    "global_code": "86HJM5FQ+5X"
   },
   "rating": 0,
   "reference": "ChIJuzn8SwA5DogRPPwgiyF07bk",
   "scope": "GOOGLE",
   "types": [
    "point_of_interest",
    "establishment"
   ],
   "user_ratings_total": 0,
   "vicinity": "Palos Heights"
  },
  {
   "business_status": "OPERATIONAL",
   "geometry": {
    "location": {
     "lat": 41.6955632,
     "lng": -87.85792339999999
    },
    "viewport": {
     "northeast": {
      "lat": 41.69691132989271,
      "lng": -87.85653637010728
     },
     "southwest": {
      "lat": 41.69421167010727,
      "lng": -87.85923602989273
     }
    }
   },
   "icon": "https://maps.gstatic.com/mapfiles/place_api/icons/v1/png_71/park-71.png",
   "icon_background_color": "#4DB546",
   "icon_mask_base_uri": "https://maps.gstatic.com/mapfiles/place_api/icons/v2/tree_pinlet",
   "name": "Morrill Meadow",
   "photos": [
    {
     "height": 2268,
     "html_attributions": [
      "<a href=\"https://maps.google.com/maps/contrib/100397163836368717696\">raizada</a>"
     ],
     "photo_reference": "AVzFdbkgoQshwAYLNpFR0Vx6a1dHEXAXBJl0RsyzAo7HTE6gs7On9f2Iy6LfUAPxz_H6C11xKVuQkrh6jTsQZqP1g-wgC158X_mICOgdKp03u_v5pRHa5fiogHE1BnRI0duzXqzwzYSeRMbdAYBDYEs_kcYhCmLMRsAOFAVF3bBV3W3K1E6i-sFknLrX",
     "width": 4032
    }
   ],
   "place_id": "ChIJ4R1caHxHDogR7xxNyvpL2QQ",
   "plus_code": {
    "compound_code": "M4WR+6R Palos Hills, Illinois",
    "global_code": "86HJM4WR+6R"
   },
   "rating": 4.6,
   "reference": "ChIJ4R1caHxHDogR7xxNyvpL2QQ",
   "scope": "GOOGLE",
   "types": [
    "tourist_attraction",
    "park",
    "point_of_interest",
    "establishment"
   ],
   "user_ratings_total": 108,
   "vicinity": "9801 W 107th St, Palos Hills"
  },
  {
   "business_status": "OPERATIONAL",
   "geometry": {
    "location": {
     "lat": 41.6728057,
     "lng": -87.8092233
    },
    "viewport": {
     "northeast": {
      "lat": 41.67401972989273,
      "lng": -87.80739612010728
     },
     "southwest": {
      "lat": 41.67132007010728,
      "lng": -87.81009577989272
     }
    }
   },
   "icon": "https://maps.gstatic.com/mapfiles/place_api/icons/v1/png_71/generic_business-71.png",
   "icon_background_color": "#7B9EB0",
   "icon_mask_base_uri": "https://maps.gstatic.com/mapfiles/place_api/icons/v2/generic_pinlet",
   "name": "Pony Field",
   "opening_hours": {
    "open_now": true
   },
   "place_id": "ChIJzdhTXgA5DogRFbkq4ZlX8Ic",
   "plus_code": {
    "compound_code": "M5FR+48 Palos Heights, Illinois",
    "global_code": "86HJM5FR+48"
   },
   "rating": 0,
   "reference": "ChIJzdhTXgA5DogRFbkq4ZlX8Ic",
   "scope": "GOOGLE",
   "types": [
    "point_of_interest",
    "establishment"
   ],
   "user_ratings_total": 0,
   "vicinity": "Palos Heights"
  },
  {
   "business_status": "OPERATIONAL",
   "geometry": {
    "location": {
     "lat": 41.710925,
     "lng": -87.772486
    },
    "viewport": {
     "northeast": {
      "lat": 41.71208397989272,
      "lng": -87.77111077010727
     },
     "southwest": {
      "lat": 41.70938432010728,
      "lng": -87.77381042989272
     }
    }
   },
   "icon": "https://maps.gstatic.com/mapfiles/place_api/icons/v1/png_71/generic_business-71.png",
   "icon_background_color": "#7B9EB0",
   "icon_mask_base_uri": "https://maps.gstatic.com/mapfiles/place_api/icons/v2/generic_pinlet",
   "name": "Columbus Manor Baseball Field",
   "photos": [
    {
     "height": 4032,
     "html_attributions": [
      "<a href=\"https://maps.google.com/maps/contrib/108192696698447621659\">Tareq Welem</a>"
     ],
     "photo_reference": "AVzFdbkqRYCFB_eFCNholV8AgwYg6s6RH6ZBRO0tni-1TpnZCYHpKWGMifTdRELTgJKc9HjYSPskgXnH_K6nn1RqLJ79zaI-uBXgMjzEYf5PZkKTh_uigY3gZinS3GJndqMbLCpla5QMQ97iCvmGq4feNUPibtXHY9iYFOWuCHC0KwyV-Bl828m9iXFr",
     "width": 3024
    }
   ],
   "place_id": "ChIJQ6O4KnY7DogRPZzkFR-BwZI",
   "plus_code": {
    "compound_code": "P66H+92 Oak Lawn, Illinois",
    "global_code": "86HJP66H+92"
   },
   "rating": 4,
   "reference": "ChIJQ6O4KnY7DogRPZzkFR-BwZI",
   "scope": "GOOGLE",
   "types": [
    "point_of_interest",
    "establishment"
   ],
   "user_ratings_total": 2,
   "vicinity": "10000 100th St, Oak Lawn"
  },
  {
   "business_status": "OPERATIONAL",
   "geometry": {
    "location": {
     "lat": 41.692722,
     "lng": -87.8429702
    },
    "viewport": {
     "northeast": {
      "lat": 41.69412297989271,
      "lng": -87.84121102010728
     },
     "southwest": {
      "lat": 41.69142332010727,
      "lng": -87.84391067989272
     }
    }
   },
   "icon": "https://maps.gstatic.com/mapfiles/place_api/icons/v1/png_71/generic_business-71.png",
   "icon_background_color": "#7B9EB0",
   "icon_mask_base_uri": "https://maps.gstatic.com/mapfiles/place_api/icons/v2/generic_pinlet",
   "name": "Baseball Field",
   "place_id": "ChIJeaDRTAY5DogRWSpjuvVBfTU",
   "plus_code": {
    "compound_code": "M5V4+3R Palos Hills, Illinois",
    "global_code": "86HJM5V4+3R"
   },
   "rating": 4,
   "reference": "ChIJeaDRTAY5DogRWSpjuvVBfTU",
   "scope": "GOOGLE",
   "types": [
    "point_of_interest",
    "establishment"
   ],
   "user_ratings_total": 1,
   "vicinity": "Building P, Palos Hills"
  },
  {
   "business_status": "OPERATIONAL",
   "geometry": {
    "location": {
     "lat": 41.696957,
     "lng": -87.788181
    },
    "viewport": {
     "northeast": {
      "lat": 41.69838807989272,
      "lng": -87.78694242010728
     },
     "southwest": {
      "lat": 41.69568842010727,
      "lng": -87.78964207989273
     }
    }
   },
   "icon": "https://maps.gstatic.com/mapfiles/place_api/icons/v1/png_71/generic_business-71.png",
   "icon_background_color": "#7B9EB0",
   "icon_mask_base_uri": "https://maps.gstatic.com/mapfiles/place_api/icons/v2/generic_pinlet",
   "name": "Peaks Park Baseball Field",
   "place_id": "ChIJPwLcoz85DogR-YM1OOYncX0",
   "plus_code": {
    "compound_code": "M6W6+QP Worth, Illinois",
    "global_code": "86HJM6W6+QP"
   },
   "rating": 0,
   "reference": "ChIJPwLcoz85DogR-YM1OOYncX0",
   "scope": "GOOGLE",
   "types": [
    "point_of_interest",
    "establishment"
   ],
   "user_ratings_total": 0,
   "vicinity": "6701 W 107th St, Worth"
  },
  {
   "business_status": "OPERATIONAL",
   "geometry": {
    "location": {
     "lat": 41.69189679999999,
     "lng": -87.84372959999999
    },
    "viewport": {
     "northeast": {
      "lat": 41.69323702989272,
      "lng": -87.84122654999999
     },
     "southwest": {
      "lat": 41.69053737010728,
      "lng": -87.84456395
     }
    }
   },
   "icon": "https://maps.gstatic.com/mapfiles/place_api/icons/v1/png_71/generic_business-71.png",
   "icon_background_color": "#7B9EB0",
   "icon_mask_base_uri": "https://maps.gstatic.com/mapfiles/place_api/icons/v2/generic_pinlet",
   "name": "Soccer field",
   "place_id": "ChIJPbB_NgA5DogRqoJYkNJqq9Q",
   "plus_code": {
    "compound_code": "M5R4+QG Palos Hills, Illinois",
    "global_code": "86HJM5R4+QG"
   },
   "rating": 0,
   "reference": "ChIJPbB_NgA5DogRqoJYkNJqq9Q",
   "scope": "GOOGLE",
   "types": [
    "point_of_interest",
    "establishment"
   ],
   "user_ratings_total": 0,
   "vicinity": "Health, Fitness & Recreation Center, 9000 College Pkwy, Palos Hills"
  },
  {
   "business_status": "OPERATIONAL",
   "geometry": {
    "location": {
     "lat": 41.696795,
     "lng": -87.786344
    },
    "viewport": {
     "northeast": {
      "lat": 41.69817702989273,
      "lng": -87.78500657010729
     },
     "southwest": {
      "lat": 41.69547737010728,
      "lng": -87.78770622989273
     }
    }
   },
   "icon": "https://maps.gstatic.com/mapfiles/place_api/icons/v1/png_71/generic_business-71.png",
   "icon_background_color": "#7B9EB0",
   "icon_mask_base_uri": "https://maps.gstatic.com/mapfiles/place_api/icons/v2/generic_pinlet",
   "name": "Ball Fore Baseball Field Practice",
   "photos": [
    {
     "height": 2560,
     "html_attributions": [
      "<a href=\"https://maps.google.com/maps/contrib/116221443742279201152\">A Google User</a>"
     ],
     "photo_reference": "AVzFdbngygIRHI91alYlZwgCor_3jvAUnovhgpDFia-j4Wpg9Pei35xKHyvmdUrQkpMbC9opCgyVCiu8ZiWY3KDyzY4Qkj9D3JVW_q0sHH3f1KwlwlqjyqCXTIntSypeUGtPPrdqbZrISaaP3F-YmoMij-yax0UYsuEqMnUv4XGZzJIuK90rVx5xdycz",
     "width": 1920
    }
   ],
   "place_id": "ChIJXafcLJc5DogRX9Vf6TOzu-4",
   "plus_code": {
    "compound_code": "M6W7+PF Worth, Illinois",
    "global_code": "86HJM6W7+PF"
   },
   "rating": 0,
   "reference": "ChIJXafcLJc5DogRX9Vf6TOzu-4",
   "scope": "GOOGLE",
   "types": [
    "point_of_interest",
    "establishment"
   ],
   "user_ratings_total": 0,
   "vicinity": "6701 W 107th St, Worth"
  },
  {
   "business_status": "OPERATIONAL",
   "geometry": {
    "location": {
     "lat": 41.7298324,
     "lng": -87.7758224
    },
    "viewport": {
     "northeast": {
      "lat": 41.73102977989272,
      "lng": -87.77446922010728
     },
     "southwest": {
      "lat": 41.72833012010727,
      "lng": -87.77716887989273
     }
    }
   },
   "icon": "https://maps.gstatic.com/mapfiles/place_api/icons/v1/png_71/generic_business-71.png",
   "icon_background_color": "#7B9EB0",
   "icon_mask_base_uri": "https://maps.gstatic.com/mapfiles/place_api/icons/v2/generic_pinlet",
   "name": "Baseball Field 2",
   "place_id": "ChIJmap0UeA7DogRe0lmlv27Xz4",
   "plus_code": {
    "compound_code": "P6HF+WM Oak Lawn, Illinois",
    "global_code": "86HJP6HF+WM"
   },
   "rating": 0,
   "reference": "ChIJmap0UeA7DogRe0lmlv27Xz4",
   "scope": "GOOGLE",
   "types": [
    "point_of_interest",
    "establishment"
   ],
   "user_ratings_total": 0,
   "vicinity": "6398 89th Pl, Oak Lawn"
  },
  {
   "business_status": "OPERATIONAL",
   "geometry": {
    "location": {
     "lat": 41.69153499999999,
     "lng": -87.8284498
    },
    "viewport": {
     "northeast": {
      "lat": 41.69282182989272,
      "lng": -87.82707752010728
     },
     "southwest": {
      "lat": 41.69012217010728,
      "lng": -87.82977717989273
     }
    }
   },
   "icon": "https://maps.gstatic.com/mapfiles/place_api/icons/v1/png_71/park-71.png",
   "icon_background_color": "#4DB546",
   "icon_mask_base_uri": "https://maps.gstatic.com/mapfiles/place_api/icons/v2/tree_pinlet",
   "name": "Moraine soccer field",
   "place_id": "ChIJCY1ofgA5DogRNhaNkSgZRjc",
   "plus_code": {
    "compound_code": "M5RC+JJ Palos Hills, Illinois",
    "global_code": "86HJM5RC+JJ"
   },
   "rating": 0,
   "reference": "ChIJCY1ofgA5DogRNhaNkSgZRjc",
   "scope": "GOOGLE",
   "types": [
    "park",
    "point_of_interest",
    "establishment"
   ],
   "user_ratings_total": 0,
   "vicinity": "11018 Theresa Cir, Palos Hills"
  },
  {
   "business_status": "OPERATIONAL",
   "geometry": {
    "location": {
     "lat": 41.67631799999999,
     "lng": -87.7260818
    },
    "viewport": {
     "northeast": {
      "lat": 41.67780107989272,
      "lng": -87.72473602010727
     },
     "southwest": {
      "lat": 41.67510142010727,
      "lng": -87.72743567989272
     }
    }
   },
   "icon": "https://maps.gstatic.com/mapfiles/place_api/icons/v1/png_71/generic_business-71.png",
   "icon_background_color": "#7B9EB0",
   "icon_mask_base_uri": "https://maps.gstatic.com/mapfiles/place_api/icons/v2/generic_pinlet",
   "name": "Alsip Baseball, Radz Field",
   "opening_hours": {
    "open_now": true
   },
   "photos": [
    {
     "height": 2048,
     "html_attributions": [
      "<a href=\"https://maps.google.com/maps/contrib/109026355129091941487\">A Google User</a>"
     ],
     "photo_reference": "AVzFdbkHq3NO8D4_80j5NL1qNbtj-TLoTKD0vRLOrgCKv3gRSVvunTIMgeI0yQ_xZle2iAk1FVivg4FSOd1c2jb_de2Jto1f0hyWMPpbGJWiMhdWetKzz77EpSPonptHqUpQ-RW1vlJnibSJMPGSAd9JN_OGuXWwj5oNbDPdLCVM5hKVLXzp9g0IrKKo",
     "width": 2048
    }
   ],
   "place_id": "ChIJFQNcty87DogRHuhtyF7H_IQ",
   "plus_code": {
    "compound_code": "M7GF+GH Alsip, Illinois",
    "global_code": "86HJM7GF+GH"
   },
   "rating": 5,
   "reference": "ChIJFQNcty87DogRHuhtyF7H_IQ",
   "scope": "GOOGLE",
   "types": [
    "point_of_interest",
    "establishment"
   ],
   "user_ratings_total": 1,
   "vicinity": "41.6763680, 87.7260423, Alsip"
  },
  {
   "business_status": "OPERATIONAL",
   "geometry": {
    "location": {
     "lat": 41.73157090000001,
     "lng": -87.7028401
    },
    "viewport": {
     "northeast": {
      "lat": 41.73299362989272,
      "lng": -87.70147987010728
     },
     "southwest": {
      "lat": 41.73029397010728,
      "lng": -87.70417952989273
     }
    }
   },
   "icon": "https://maps.gstatic.com/mapfiles/place_api/icons/v1/png_71/park-71.png",
   "icon_background_color": "#4DB546",
   "icon_mask_base_uri": "https://maps.gstatic.com/mapfiles/place_api/icons/v2/tree_pinlet",
   "name": "Yukich Field",
   "opening_hours": {
    "open_now": true
   },
   "photos": [
    {
     "height": 2988,
     "html_attributions": [
      "<a href=\"https://maps.google.com/maps/contrib/103685053232197604551\">Dimka Atanassova</a>"
     ],
     "photo_reference": "AVzFdbm-Hu_XgJH3C-9I2JERv5Avn2Fu7Gt6psmVcTuyq4w8FdJWaTO8xB8H2i1dU5Jpg97C6xkvIt7OkhPP6AlWje996ZJxQ3oW0qTemHUQtpiZOGAvwdMwnVWPD9K1m6LJlUiUy6Tx8GTxvWMbnCBdcCj8Pqp1z42-tLHlSzjhxGFc38SE0BdbtMmU",
     "width": 5312
    }
   ],
   "place_id": "ChIJqU4uuK46DogRQ4Pt7_7ITP4",
   "plus_code": {
    "compound_code": "P7JW+JV Evergreen Park, Illinois",
    "global_code": "86HJP7JW+JV"
   },
   "rating": 4.6,
   "reference": "ChIJqU4uuK46DogRQ4Pt7_7ITP4",
   "scope": "GOOGLE",
   "types": [
    "park",
    "point_of_interest",
    "establishment"
   ],
   "user_ratings_total": 570,
   "vicinity": "8900 S Kedzie Ave, Evergreen Park"
  },
  {
   "business_status": "OPERATIONAL",
   "geometry": {
    "location": {
     "lat": 41.7305612,
     "lng": -87.6924812
    },
    "viewport": {
     "northeast": {
      "lat": 41.73191332989272,
      "lng": -87.69099587010727
     },
     "southwest": {
      "lat": 41.72921367010727,
      "lng": -87.69369552989272
     }
    }
   },
   "icon": "https://maps.gstatic.com/mapfiles/place_api/icons/v1/png_71/generic_business-71.png",
   "icon_background_color": "#7B9EB0",
   "icon_mask_base_uri": "https://maps.gstatic.com/mapfiles/place_api/icons/v2/generic_pinlet",
   "name": "Norris Field",
   "photos": [
    {
     "height": 4032,
     "html_attributions": [
      "<a href=\"https://maps.google.com/maps/contrib/104318548626299303246\">A Google User</a>"
     ],
     "photo_reference": "AVzFdbmmVu2ROJdSnEVkDeKKed5q28BCpubKqnKCK-kTYJHDRjiEAFDABQnpGXvohUN9jNvVuxcivZMbT1Op2DOhpm8e-OwFVhCskG9U7IotgzYZP4EbE6wCXRdROD5RV5iqw11mQEpvNLOljL5ALAOtIu7XHckEa2nqJGuCXCwHRrrI9rX2kJjcl_p5",
     "width": 3024
    }
   ],
   "place_id": "ChIJQ4MIe1ElDogRsmtaPqDVl0M",
   "plus_code": {
    "compound_code": "P8J5+62 Evergreen Park, Illinois",
    "global_code": "86HJP8J5+62"
   },
   "rating": 4.4,
   "reference": "ChIJQ4MIe1ElDogRsmtaPqDVl0M",
   "scope": "GOOGLE",
   "types": [
    "point_of_interest",
    "establishment"
   ],
   "user_ratings_total": 13,
   "vicinity": "8930 S California Ave, Evergreen Park"
  },
  {
   "business_status": "OPERATIONAL",
   "geometry": {
    "location": {
     "lat": 41.6891501,
     "lng": -87.7145268
    },
    "viewport": {
     "northeast": {
      "lat": 41.69116429999999,
      "lng": -87.71363242010727
     },
     "southwest": {
      "lat": 41.68815550000001,
      "lng": -87.71633207989272
     }
    }
   },
   "icon": "https://maps.gstatic.com/mapfiles/place_api/icons/v1/png_71/generic_business-71.png",
   "icon_background_color": "#7B9EB0",
   "icon_mask_base_uri": "https://maps.gstatic.com/mapfiles/place_api/icons/v2/generic_pinlet",
   "name": "Mt. Greenwood Ball Field 5",
   "opening_hours": {
    "open_now": true
   },
   "place_id": "ChIJ6RvNOwA7DogRY9Wb-NwI3RI",
   "plus_code": {
    "compound_code": "M7QP+M5 Chicago, Illinois",
    "global_code": "86HJM7QP+M5"
   },
   "rating": 0,
   "reference": "ChIJ6RvNOwA7DogRY9Wb-NwI3RI",
   "scope": "GOOGLE",
   "types": [
    "point_of_interest",
    "establishment"
   ],
   "user_ratings_total": 0,
   "vicinity": "Chicago"
  },
  {
   "business_status": "OPERATIONAL",
   "geometry": {
    "location": {
     "lat": 41.6789413,
     "lng": -87.7224737
    },
    "viewport": {
     "northeast": {
      "lat": 41.68029082989273,
      "lng": -87.72113512010728
     },
     "southwest": {
      "lat": 41.67759117010728,
      "lng": -87.72383477989271
     }
    }
   },
   "icon": "https://maps.gstatic.com/mapfiles/place_api/icons/v1/png_71/generic_business-71.png",
   "icon_background_color": "#7B9EB0",
   "icon_mask_base_uri": "https://maps.gstatic.com/mapfiles/place_api/icons/v2/generic_pinlet",
   "name": "Anderson Little League Field",
   "photos": [
    {
     "height": 2988,
     "html_attributions": [
      "<a href=\"https://maps.google.com/maps/contrib/102030510100011868031\">Kris Scott</a>"
     ],
     "photo_reference": "AVzFdbknGirDy2vFQlV36PaFChxmuLMYbbTEQe7KzLrmXkzkmK9lsrmIer-BDd6MQyE03bv5nv8pR1ajCNV4wIXXVFkVKSPHotzP-OhCY1l2AvGWAkCSZCJU6CHBdu8MoVhy33dclnU5UpFvuwb_twgongcqAVS98IczI6fpT3zGGZNityHCYAA_ka5d",
     "width": 5312
    }
   ],
   "place_id": "ChIJaYygRBM7DogRSCU_3b9anDA",
   "plus_code": {
    "compound_code": "M7HG+HX Alsip, Illinois",
    "global_code": "86HJM7HG+HX"
   },
   "rating": 4.1,
   "reference": "ChIJaYygRBM7DogRSCU_3b9anDA",
   "scope": "GOOGLE",
   "types": [
    "point_of_interest",
    "establishment"
   ],
   "user_ratings_total": 29,
   "vicinity": "11740 S Karlov Ave, Alsip"
  },
  {
   "business_status": "OPERATIONAL",
   "geometry": {
    "location": {
     "lat": 41.68965439999999,
     "lng": -87.7149632
    },
    "viewport": {
     "northeast": {
      "lat": 41.69137972989272,
      "lng": -87.71385062010727
     },
     "southwest": {
      "lat": 41.68868007010727,
      "lng": -87.71655027989272
     }
    }
   },
   "icon": "https://maps.gstatic.com/mapfiles/place_api/icons/v1/png_71/generic_business-71.png",
   "icon_background_color": "#7B9EB0",
   "icon_mask_base_uri": "https://maps.gstatic.com/mapfiles/place_api/icons/v2/generic_pinlet",
   "name": "Mt. Greenwood Ball Field 6",
   "opening_hours": {
    "open_now": true
   },
   "place_id": "ChIJ6woGQQA7DogReKr3z9D6f4Y",
   "plus_code": {
    "compound_code": "M7QP+V2 Chicago, Illinois",
    "global_code": "86HJM7QP+V2"
   },
   "rating": 0,
   "reference": "ChIJ6woGQQA7DogReKr3z9D6f4Y",
   "scope": "GOOGLE",
   "types": [
    "point_of_interest",
    "establishment"
   ],
   "user_ratings_total": 0,
   "vicinity": "Chicago"
  },
  {
   "business_status": "OPERATIONAL",
   "geometry": {
    "location": {
     "lat": 41.68689699999999,
     "lng": -87.6854618
    },
    "viewport": {
     "northeast": {
      "lat": 41.68794932989272,
      "lng": -87.68366807010727
     },
     "southwest": {
      "lat": 41.68524967010728,
      "lng": -87.68636772989272
     }
    }
   },
   "icon": "https://maps.gstatic.com/mapfiles/place_api/icons/v1/png_71/generic_business-71.png",
   "icon_background_color": "#7B9EB0",
   "icon_mask_base_uri": "https://maps.gstatic.com/mapfiles/place_api/icons/v2/generic_pinlet",
   "name": "Kennedy (Dennis) Park Baseball Fields",
   "opening_hours": {
    "open_now": true
   },
   "place_id": "ChIJHVFdJsUkDogRBt6dxViHhdw",
   "plus_code": {
    "compound_code": "M8P7+QR Chicago, Illinois",
    "global_code": "86HJM8P7+QR"
   },
   "rating": 0,
   "reference": "ChIJHVFdJsUkDogRBt6dxViHhdw",
   "scope": "GOOGLE",
   "types": [
    "point_of_interest",
    "establishment"
   ],
   "user_ratings_total": 0,
   "vicinity": "11320 S Western Ave, Chicago"
  },
  {
   "business_status": "OPERATIONAL",
   "geometry": {
    "location": {
     "lat": 41.6902365,
     "lng": -87.7145373
    },
    "viewport": {
     "northeast": {
      "lat": 41.69215017989272,
      "lng": -87.71315157010729
     },
     "southwest": {
      "lat": 41.68945052010727,
      "lng": -87.71585122989272
     }
    }
   },
   "icon": "https://maps.gstatic.com/mapfiles/place_api/icons/v1/png_71/generic_business-71.png",
   "icon_background_color": "#7B9EB0",
   "icon_mask_base_uri": "https://maps.gstatic.com/mapfiles/place_api/icons/v2/generic_pinlet",
   "name": "Mt. Greenwood Ball Field 7",
   "opening_hours": {
    "open_now": true
   },
   "place_id": "ChIJs5gGXAA7DogRKYGDRczIkcI",
   "plus_code": {
    "compound_code": "M7RP+35 Chicago, Illinois",
    "global_code": "86HJM7RP+35"
   },
   "rating": 0,
   "reference": "ChIJs5gGXAA7DogRKYGDRczIkcI",
   "scope": "GOOGLE",
   "types": [
    "point_of_interest",
    "establishment"
   ],
   "user_ratings_total": 0,
   "vicinity": "Chicago"
  },
  {
   "business_status": "OPERATIONAL",
   "geometry": {
    "location": {
     "lat": 41.690294,
     "lng": -87.71358719999999
    },
    "viewport": {
     "northeast": {
      "lat": 41.69186437989273,
      "lng": -87.71210487010728
     },
     "southwest": {
      "lat": 41.68916472010729,
      "lng": -87.71480452989273
     }
    }
   },
   "icon": "https://maps.gstatic.com/mapfiles/place_api/icons/v1/png_71/generic_business-71.png",
   "icon_background_color": "#7B9EB0",
   "icon_mask_base_uri": "https://maps.gstatic.com/mapfiles/place_api/icons/v2/generic_pinlet",
   "name": "Mt. Greenwood Ball Field 8",
   "opening_hours": {
    "open_now": true
   },
   "place_id": "ChIJUcwcdAA7DogR1NGejg2kqY4",
   "plus_code": {
    "compound_code": "M7RP+4H Chicago, Illinois",
    "global_code": "86HJM7RP+4H"
   },
   "rating": 0,
   "reference": "ChIJUcwcdAA7DogR1NGejg2kqY4",
   "scope": "GOOGLE",
   "types": [
    "point_of_interest",
    "establishment"
   ],
   "user_ratings_total": 0,
   "vicinity": "Chicago"
  },
  {
   "business_status": "OPERATIONAL",
   "geometry": {
    "location": {
     "lat": 41.6890843,
     "lng": -87.71394980000001
    },
    "viewport": {
     "northeast": {
      "lat": 41.69017392989272,
      "lng": -87.71259462010727
     },
     "southwest": {
      "lat": 41.68747427010728,
      "lng": -87.71529427989272
     }
    }
   },
   "icon": "https://maps.gstatic.com/mapfiles/place_api/icons/v1/png_71/generic_business-71.png",
   "icon_background_color": "#7B9EB0",
   "icon_mask_base_uri": "https://maps.gstatic.com/mapfiles/place_api/icons/v2/generic_pinlet",
   "name": "Mt. Greenwood Ball Field 4",
   "opening_hours": {
    "open_now": true
   },
   "place_id": "ChIJuRouawA7DogRcR312D6SZmE",
   "plus_code": {
    "compound_code": "M7QP+JC Chicago, Illinois",
    "global_code": "86HJM7QP+JC"
   },
   "rating": 0,
   "reference": "ChIJuRouawA7DogRcR312D6SZmE",
   "scope": "GOOGLE",
   "types": [
    "point_of_interest",
    "establishment"
   ],
   "user_ratings_total": 0,
   "vicinity": "Chicago"
  },
  {
   "business_status": "OPERATIONAL",
   "geometry": {
    "location": {
     "lat": 41.6892156,
     "lng": -87.7129061
    },
    "viewport": {
     "northeast": {
      "lat": 41.69025597989272,
      "lng": -87.71096042010727
     },
     "southwest": {
      "lat": 41.68755632010728,
      "lng": -87.71366007989272
     }
    }
   },
   "icon": "https://maps.gstatic.com/mapfiles/place_api/icons/v1/png_71/generic_business-71.png",
   "icon_background_color": "#7B9EB0",
   "icon_mask_base_uri": "https://maps.gstatic.com/mapfiles/place_api/icons/v2/generic_pinlet",
   "name": "Mt. Greenwood Ball Field 3",
   "opening_hours": {
    "open_now": true
   },
   "place_id": "ChIJm3qcYwA7DogRREPiULKBFMo",
   "plus_code": {
    "compound_code": "M7QP+MR Chicago, Illinois",
    "global_code": "86HJM7QP+MR"
   },
   "rating": 0,
   "reference": "ChIJm3qcYwA7DogRREPiULKBFMo",
   "scope": "GOOGLE",
   "types": [
    "point_of_interest",
    "establishment"
   ],
   "user_ratings_total": 0,
   "vicinity": "Chicago"
  },
  {
   "business_status": "OPERATIONAL",
   "geometry": {
    "location": {
     "lat": 41.6710921,
     "lng": -87.77229
    },
    "viewport": {
     "northeast": {
      "lat": 41.67277912989272,
      "lng": -87.77075172010727
     },
     "southwest": {
      "lat": 41.67007947010727,
      "lng": -87.77345137989272
     }
    }
   },
   "icon": "https://maps.gstatic.com/mapfiles/place_api/icons/v1/png_71/generic_business-71.png",
   "icon_background_color": "#7B9EB0",
   "icon_mask_base_uri": "https://maps.gstatic.com/mapfiles/place_api/icons/v2/generic_pinlet",
   "name": "George and June Complex Soccer Field",
   "photos": [
    {
     "height": 2350,
     "html_attributions": [
      "<a href=\"https://maps.google.com/maps/contrib/102685459531181017076\">Peter Clevering</a>"
     ],
     "photo_reference": "AVzFdbn1nodexir9s_PncfLDtk2e9IupPX4wcIvFD3gNdmtjJAqHJ8Byf6hfV6NsuMiDYCk52ls9x0fZU73Mxj-MzQ5yXP6q3bGr2bOWC6VtPqGg1f8BR_Rm9SQLXUWHBTn1y-BtBnbvkAVlEgliZeklyBdVOKRjoMaQst1Y4uERUfZJEWTHstoSm-IU",
     "width": 3580
    }
   ],
   "place_id": "ChIJe4bPkSQ7DogRGdE45-gO9dQ",
   "plus_code": {
    "compound_code": "M6CH+C3 Palos Heights, Illinois",
    "global_code": "86HJM6CH+C3"
   },
   "rating": 5,
   "reference": "ChIJe4bPkSQ7DogRGdE45-gO9dQ",
   "scope": "GOOGLE",
   "types": [
    "point_of_interest",
    "establishment"
   ],
   "user_ratings_total": 1,
   "vicinity": "6601 W College Dr, Palos Heights"
  },
  {
   "business_status": "OPERATIONAL",
   "geometry": {
    "location": {
     "lat": 41.7243567,
     "lng": -87.72967369999999
    },
    "viewport": {
     "northeast": {
      "lat": 41.72551407989273,
      "lng": -87.72831637010728
     },
     "southwest": {
      "lat": 41.72281442010728,
      "lng": -87.73101602989271
     }
    }
   },
   "icon": "https://maps.gstatic.com/mapfiles/place_api/icons/v1/png_71/park-71.png",
   "icon_background_color": "#4DB546",
   "icon_mask_base_uri": "https://maps.gstatic.com/mapfiles/place_api/icons/v2/tree_pinlet",
   "name": "Field 5",
   "place_id": "ChIJAav25jo7DogRbNBUnHq0DIg",
   "plus_code": {
    "compound_code": "P7FC+P4 Oak Lawn, Illinois",
    "global_code": "86HJP7FC+P4"
   },
   "rating": 0,
   "reference": "ChIJAav25jo7DogRbNBUnHq0DIg",
   "scope": "GOOGLE",
   "types": [
    "park",
    "point_of_interest",
    "establishment"
   ],
   "user_ratings_total": 0,
   "vicinity": "4300 W 93rd St, Oak Lawn"
  },
  {
   "business_status": "OPERATIONAL",
   "geometry": {
    "location": {
     "lat": 41.6897105,
     "lng": -87.7122835
    },
    "viewport": {
     "northeast": {
      "lat": 41.69156042989272,
      "lng": -87.71111982010729
     },
     "southwest": {
      "lat": 41.68886077010728,
      "lng": -87.71381947989272
     }
    }
   },
   "icon": "https://maps.gstatic.com/mapfiles/place_api/icons/v1/png_71/generic_business-71.png",
   "icon_background_color": "#7B9EB0",
   "icon_mask_base_uri": "https://maps.gstatic.com/mapfiles/place_api/icons/v2/generic_pinlet",
   "name": "Mt. Greenwood Ball Field 2",
   "opening_hours": {
    "open_now": true
   },
   "place_id": "ChIJRX47EgA7DogRlrsvIbmcJlk",
   "plus_code": {
    "compound_code": "M7QQ+V3 Chicago, Illinois",
    "global_code": "86HJM7QQ+V3"
   },
   "rating": 0,
   "reference": "ChIJRX47EgA7DogRlrsvIbmcJlk",
   "scope": "GOOGLE",
   "types": [
    "point_of_interest",
    "establishment"
   ],
   "user_ratings_total": 0,
   "vicinity": "Chicago"
  },
  {
   "business_status": "OPERATIONAL",
   "geometry": {
    "location": {
     "lat": 41.7130681,
     "lng": -87.75962469999999
    },
    "viewport": {
     "northeast": {
      "lat": 41.71441557989272,
      "lng": -87.75849782010727
     },
     "southwest": {
      "lat": 41.71171592010727,
      "lng": -87.76119747989272
     }
    }
   },
   "icon": "https://maps.gstatic.com/mapfiles/place_api/icons/v1/png_71/generic_business-71.png",
   "icon_background_color": "#7B9EB0",
   "icon_mask_base_uri": "https://maps.gstatic.com/mapfiles/place_api/icons/v2/generic_pinlet",
   "name": "Ernie Kolb Field",
   "place_id": "ChIJE6jS7I05DogRyuq3dBNY_nY",
   "plus_code": {
    "compound_code": "P67R+65 Oak Lawn, Illinois",
    "global_code": "86HJP67R+65"
   },
   "rating": 4.2,
   "reference": "ChIJE6jS7I05DogRyuq3dBNY_nY",
   "scope": "GOOGLE",
   "types": [
    "point_of_interest",
    "establishment"
   ],
   "user_ratings_total": 12,
   "vicinity": "99th &, Central Ave, Oak Lawn"
  },
  {
   "business_status": "OPERATIONAL",
   "geometry": {
    "location": {
     "lat": 41.724418,
     "lng": -87.728841
    },
    "viewport": {
     "northeast": {
      "lat": 41.72555382989272,
      "lng": -87.72748282010728
     },
     "southwest": {
      "lat": 41.72285417010728,
      "lng": -87.73018247989272
     }
    }
   },
   "icon": "https://maps.gstatic.com/mapfiles/place_api/icons/v1/png_71/park-71.png",
   "icon_background_color": "#4DB546",
   "icon_mask_base_uri": "https://maps.gstatic.com/mapfiles/place_api/icons/v2/tree_pinlet",
   "name": "Field #4",
   "place_id": "ChIJSbkOh607DogRgGAYOX2j740",
   "plus_code": {
    "compound_code": "P7FC+QF Oak Lawn, Illinois",
    "global_code": "86HJP7FC+QF"
   },
   "rating": 0,
   "reference": "ChIJSbkOh607DogRgGAYOX2j740",
   "scope": "GOOGLE",
   "types": [
    "park",
    "point_of_interest",
    "establishment"
   ],
   "user_ratings_total": 0,
   "vicinity": "4300 W 93rd St, Oak Lawn"
  },
  {
   "business_status": "OPERATIONAL",
   "geometry": {
    "location": {
     "lat": 41.6901371,
     "lng": -87.71278869999999
    },
    "viewport": {
     "northeast": {
      "lat": 41.69178942989272,
      "lng": -87.71152157010728
     },
     "southwest": {
      "lat": 41.68908977010728,
      "lng": -87.71422122989271
     }
    }
   },
   "icon": "https://maps.gstatic.com/mapfiles/place_api/icons/v1/png_71/generic_business-71.png",
   "icon_background_color": "#7B9EB0",
   "icon_mask_base_uri": "https://maps.gstatic.com/mapfiles/place_api/icons/v2/generic_pinlet",
   "name": "Mt. Greenwood Ball Field 1",
   "opening_hours": {
    "open_now": true
   },
   "place_id": "ChIJOTPxOQA7DogRAtqg1WQbfc0",
   "plus_code": {
    "compound_code": "M7RP+3V Chicago, Illinois",
    "global_code": "86HJM7RP+3V"
   },
   "rating": 0,
   "reference": "ChIJOTPxOQA7DogRAtqg1WQbfc0",
   "scope": "GOOGLE",
   "types": [
    "point_of_interest",
    "establishment"
   ],
   "user_ratings_total": 0,
   "vicinity": "Chicago"
  },
  {
   "business_status": "OPERATIONAL",
   "geometry": {
    "location": {
     "lat": 41.725644,
     "lng": -87.73065199999999
    },
    "viewport": {
     "northeast": {
      "lat": 41.72649169999998,
      "lng": -87.72926932010728
     },
     "southwest": {
      "lat": 41.72310090000001,
      "lng": -87.73196897989273
     }
    }
   },
   "icon": "https://maps.gstatic.com/mapfiles/place_api/icons/v1/png_71/park-71.png",
   "icon_background_color": "#4DB546",
   "icon_mask_base_uri": "https://maps.gstatic.com/mapfiles/place_api/icons/v2/tree_pinlet",
   "name": "Field #2",
   "place_id": "ChIJnYmtTUI7DogRsW8T8KSGVto",
   "plus_code": {
    "compound_code": "P7G9+7P Oak Lawn, Illinois",
    "global_code": "86HJP7G9+7P"
   },
   "rating": 0,
   "reference": "ChIJnYmtTUI7DogRsW8T8KSGVto",
   "scope": "GOOGLE",
   "types": [
    "park",
    "point_of_interest",
    "establishment"
   ],
   "user_ratings_total": 0,
   "vicinity": "4400 W 93rd St, Oak Lawn"
  },
  {
   "business_status": "OPERATIONAL",
   "geometry": {
    "location": {
     "lat": 41.69048129999999,
     "lng": -87.7114036
    },
    "viewport": {
     "northeast": {
      "lat": 41.69175012989272,
      "lng": -87.70974467010727
     },
     "southwest": {
      "lat": 41.68905047010727,
      "lng": -87.71244432989272
     }
    }
   },
   "icon": "https://maps.gstatic.com/mapfiles/place_api/icons/v1/png_71/generic_business-71.png",
   "icon_background_color": "#7B9EB0",
   "icon_mask_base_uri": "https://maps.gstatic.com/mapfiles/place_api/icons/v2/generic_pinlet",
   "name": "St. Christina Ball Fields",
   "place_id": "ChIJLRAbfm87DogRD13JE4Z4m5M",
   "plus_code": {
    "compound_code": "M7RQ+5C Chicago, Illinois",
    "global_code": "86HJM7RQ+5C"
   },
   "rating": 5,
   "reference": "ChIJLRAbfm87DogRD13JE4Z4m5M",
   "scope": "GOOGLE",
   "types": [
    "point_of_interest",
    "establishment"
   ],
   "user_ratings_total": 4,
   "vicinity": "11101 S Central Park Ave, Chicago"
  },
  {
   "business_status": "OPERATIONAL",
   "geometry": {
    "location": {
     "lat": 41.726189,
     "lng": -87.73083
    },
    "viewport": {
     "northeast": {
      "lat": 41.72818647989272,
      "lng": -87.72871185000001
     },
     "southwest": {
      "lat": 41.72548682010728,
      "lng": -87.73153605
     }
    }
   },
   "icon": "https://maps.gstatic.com/mapfiles/place_api/icons/v1/png_71/park-71.png",
   "icon_background_color": "#4DB546",
   "icon_mask_base_uri": "https://maps.gstatic.com/mapfiles/place_api/icons/v2/tree_pinlet",
   "name": "Field #3",
   "place_id": "ChIJbS8MXkk7DogRw3Ke8vQq4GE",
   "plus_code": {
    "compound_code": "P7G9+FM Oak Lawn, Illinois",
    "global_code": "86HJP7G9+FM"
   },
   "rating": 0,
   "reference": "ChIJbS8MXkk7DogRw3Ke8vQq4GE",
   "scope": "GOOGLE",
   "types": [
    "park",
    "point_of_interest",
    "establishment"
   ],
   "user_ratings_total": 0,
   "vicinity": "9124 S Tripp Ave, Oak Lawn"
  },
  {
   "business_status": "OPERATIONAL",
   "geometry": {
    "location": {
     "lat": 41.67631799999999,
     "lng": -87.7260818
    },
    "viewport": {
     "northeast": {
      "lat": 41.67780107989272,
      "lng": -87.72473602010727
     },
     "southwest": {
      "lat": 41.67510142010727,
      "lng": -87.72743567989272
     }
    }
   },
   "icon": "https://maps.gstatic.com/mapfiles/place_api/icons/v1/png_71/generic_business-71.png",
   "icon_background_color": "#7B9EB0",
   "icon_mask_base_uri": "https://maps.gstatic.com/mapfiles/place_api/icons/v2/generic_pinlet",
   "name": "Alsip Baseball, Radz Field",
   "opening_hours": {
    "open_now": true
   },
   "photos": [
    {
     "height": 2048,
     "html_attributions": [
      "<a href=\"https://maps.google.com/maps/contrib/109026355129091941487\">A Google User</a>"
     ],
     "photo_reference": "AVzFdblePStOf8SeDKVYpN_yYxbtpfaISi4-0JVmhi12d7mBkmicVx1Wm_lQFZ2ez_CIj5DzU9xHUk2B8U6LkZubOo4RdRKXRD_RmkeiGfq_R9MEXLy9zPegWGw5Zr2htRr6JC14dKqeAZMdTH3AWIjtLGKkXzWYA44a8BsCDvmoAduXKIadP7vGQXmt",
     "width": 2048
    }
   ],
   "place_id": "ChIJFQNcty87DogRHuhtyF7H_IQ",
   "plus_code": {
    "compound_code": "M7GF+GH Alsip, Illinois",
    "global_code": "86HJM7GF+GH"
   },
   "rating": 5,
   "reference": "ChIJFQNcty87DogRHuhtyF7H_IQ",
   "scope": "GOOGLE",
   "types": [
    "point_of_interest",
    "establishment"
   ],
   "user_ratings_total": 1,
   "vicinity": "41.6763680, 87.7260423, Alsip"
  },
  {
   "business_status": "OPERATIONAL",
   "geometry": {
    "location": {
     "lat": 41.73157090000001,
     "lng": -87.7028401
    },
    "viewport": {
     "northeast": {
      "lat": 41.73299362989272,
      "lng": -87.70147987010728
     },
     "southwest": {
      "lat": 41.73029397010728,
      "lng": -87.70417952989273
     }
    }
   },
   "icon": "https://maps.gstatic.com/mapfiles/place_api/icons/v1/png_71/park-71.png",
   "icon_background_color": "#4DB546",
   "icon_mask_base_uri": "https://maps.gstatic.com/mapfiles/place_api/icons/v2/tree_pinlet",
   "name": "Yukich Field",
   "opening_hours": {
    "open_now": true
   },
   "photos": [
    {
     "height": 2988,
     "html_attributions": [
      "<a href=\"https://maps.google.com/maps/contrib/103685053232197604551\">Dimka Atanassova</a>"
     ],
     "photo_reference": "AVzFdbmm_lN0kLBCg-yRdhXF9gm4YHLJXuKGT2oaAElf_eLsACGtM7_WQpDjxDk_V1jzLJNwum5fifFNu_KBfqdQPzEdOe-1N30I_elVYV3-_LFbt07wnO1lSDJX-bje-DSBhiMAR-Fy8RwDD5PEyxDHd47VY_Zti1zlgN-6abqKX8xhPc0QGQdVcdfL",
     "width": 5312
    }
   ],
   "place_id": "ChIJqU4uuK46DogRQ4Pt7_7ITP4",
   "plus_code": {
    "compound_code": "P7JW+JV Evergreen Park, Illinois",
    "global_code": "86HJP7JW+JV"
   },
   "rating": 4.6,
   "reference": "ChIJqU4uuK46DogRQ4Pt7_7ITP4",
   "scope": "GOOGLE",
   "types": [
    "park",
    "point_of_interest",
    "establishment"
   ],
   "user_ratings_total": 570,
   "vicinity": "8900 S Kedzie Ave, Evergreen Park"
  },
  {
   "business_status": "OPERATIONAL",
   "geometry": {
    "location": {
     "lat": 41.7305612,
     "lng": -87.6924812
    },
    "viewport": {
     "northeast": {
      "lat": 41.73191332989272,
      "lng": -87.69099587010727
     },
     "southwest": {
      "lat": 41.72921367010727,
      "lng": -87.69369552989272
     }
    }
   },
   "icon": "https://maps.gstatic.com/mapfiles/place_api/icons/v1/png_71/generic_business-71.png",
   "icon_background_color": "#7B9EB0",
   "icon_mask_base_uri": "https://maps.gstatic.com/mapfiles/place_api/icons/v2/generic_pinlet",
   "name": "Norris Field",
   "photos": [
    {
     "height": 4032,
     "html_attributions": [
      "<a href=\"https://maps.google.com/maps/contrib/104318548626299303246\">A Google User</a>"
     ],
     "photo_reference": "AVzFdbnvJvBm2oMF0e7VbwMt9v0CFOwtZD4UYXkwc3BjSDtvWOy1L4fKPSHyZ2Q5s1VW08Cin5X__FZEq5sOd9M7BzjEqE_GefS59hePJ1vrWsPBbhlbMjWxBAMwOXDZ-wFaBxOumHYk7QKTMCK9EJ24oTkDKaeCqSRCz_oMQCwnl_vZpEMPkCrF2pB5",
     "width": 3024
    }
   ],
   "place_id": "ChIJQ4MIe1ElDogRsmtaPqDVl0M",
   "plus_code": {
    "compound_code": "P8J5+62 Evergreen Park, Illinois",
    "global_code": "86HJP8J5+62"
   },
   "rating": 4.4,
   "reference": "ChIJQ4MIe1ElDogRsmtaPqDVl0M",
   "scope": "GOOGLE",
   "types": [
    "point_of_interest",
    "establishment"
   ],
   "user_ratings_total": 13,
   "vicinity": "8930 S California Ave, Evergreen Park"
  },
  {
   "business_status": "OPERATIONAL",
   "geometry": {
    "location": {
     "lat": 41.6891501,
     "lng": -87.7145268
    },
    "viewport": {
     "northeast": {
      "lat": 41.69116429999999,
      "lng": -87.71363242010727
     },