[
 {
  "name": "Garfield Park Conservatory",
  "rating": 4.8,
  "review_count": 795,
  "latitude": 41.8864959,
  "longitude": -87.717822,
  "location": {
   "address1": "300 N Central Park Ave",
   "address2": "",
   "address3": "",
   "city": "Chicago",
   "zip_code": "60624",
   "country": "US",
   "state": "IL",
   "display_address": [
    "300 N Central Park Ave",
    "Chicago, IL 60624"
   ]
  }
 },
 {
  "name": "Millennium Park",
  "rating": 4.6,
  "review_count": 1455,
  "latitude": 41.88255748421691,
  "longitude": -87.62255156982617,
  "location": {
   "address1": "201 E Randolph St",
   "address2": "",
   "address3": "",
   "city": "Chicago",
   "zip_code": "60601",
   "country": "US",
   "state": "IL",
   "display_address": [
    "201 E Randolph St",
    "Chicago, IL 60601"
   ]
  }
 },
 {
  "name": "Humboldt Park",
  "rating": 4.4,
  "review_count": 136,
  "latitude": 41.905754,
  "longitude": -87.702181,
  "location": {
   "address1": "1400 N Sacramento Ave",
   "address2": "",
   "address3": "",
   "city": "Chicago",
   "zip_code": "60622",
   "country": "US",
   "state": "IL",
   "display_address": [
    "1400 N Sacramento Ave",
    "Chicago, IL 60622"
   ]
  }
 },
 {
  "name": "Lincoln Park Conservatory",
  "rating": 4.6,
  "review_count": 304,
  "latitude": 41.92433507444941,
  "longitude": -87.6352185,
  "location": {
   "address1": "2391 N Stockton Dr",
   "address2": null,
   "address3": "",
   "city": "Chicago",
   "zip_code": "60614",
   "country": "US",
   "state": "IL",
   "display_address": [
    "2391 N Stockton Dr",
    "Chicago, IL 60614"
   ]
  }
 },
 {
  "name": "The 606 - Bloomingdale Trail",
  "rating": 4.2,
  "review_count": 175,
  "latitude": 41.9142769731426,
  "longitude": -87.6689563391785,
  "location": {
   "address1": "1600-3700 W Bloomingdale",
   "address2": "",
   "address3": "",
   "city": "Chicago",
   "zip_code": "60651",
   "country": "US",
   "state": "IL",
   "display_address": [
    "1600-3700 W Bloomingdale",
    "Chicago, IL 60651"
   ]
  }
 },
 {
  "name": "Maggie Daley Park - Chicago Park District",
  "rating": 4.5,
  "review_count": 222,
  "latitude": 41.882361,
  "longitude": -87.61944,
  "location": {
   "address1": "337 E Randolph",
   "address2": "",
   "address3": "",
   "city": "Chicago",
   "zip_code": "60601",
   "country": "US",
   "state": "IL",
   "display_address": [
    "337 E Randolph",
    "Chicago, IL 60601"
   ]
  }
 },
 {
  "name": "Chicago Park District - OZ PARK",
  "rating": 4.5,
  "review_count": 119,
  "latitude": 41.9209,
  "longitude": -87.64566,
  "location": {
   "address1": "2021 N Burling St",
   "address2": "",
   "address3": "",
   "city": "Chicago",
   "zip_code": "60614",
   "country": "US",
   "state": "IL",
   "display_address": [
    "2021 N Burling St",
    "Chicago, IL 60614"
   ]
  }
 },
 {
  "name": "Montrose Dog Beach",
  "rating": 4.4,
  "review_count": 295,
  "latitude": 41.968549496721856,
  "longitude": -87.64338043313141,
  "location": {
   "address1": "610 W Lawrence Ave",
   "address2": "",
   "address3": "",
   "city": "Chicago",
   "zip_code": "60640",
   "country": "US",
   "state": "IL",
   "display_address": [
    "610 W Lawrence Ave",
    "Chicago, IL 60640"
   ]
  }
 },
 {
  "name": "Wicker Park - Chicago Park District",
  "rating": 3.8,
  "review_count": 121,
  "latitude": 41.9077397733836,
  "longitude": -87.6764158224562,
  "location": {
   "address1": "1425 N Damen Ave",
   "address2": "",
   "address3": "",
   "city": "Chicago",
   "zip_code": "60622",
   "country": "US",
   "state": "IL",
   "display_address": [
    "1425 N Damen Ave",
    "Chicago, IL 60622"
   ]
  }
 },
 {
  "name": "Alfred Caldwell Lily Pool",
  "rating": 4.8,
  "review_count": 87,
  "latitude": 41.9248276,
  "longitude": -87.6340494,
  "location": {
   "address1": "125 W Fullerton Pkwy",
   "address2": "",
   "address3": "",
   "city": "Chicago",
   "zip_code": "60614",
   "country": "US",
   "state": "IL",
   "display_address": [
    "125 W Fullerton Pkwy",
    "Chicago, IL 60614"
   ]
  }
 },
 {
  "name": "Grant Park",
  "rating": 4.6,
  "review_count": 216,
  "latitude": 41.8758205085886,
  "longitude": -87.6189493035277,
  "location": {
   "address1": "331 E Randolph St",
   "address2": "",
   "address3": "",
   "city": "Chicago",
   "zip_code": "60601",
   "country": "US",
   "state": "IL",
   "display_address": [
    "331 E Randolph St",
    "Chicago, IL 60601"
   ]
  }
 },
 {
  "name": "Nature Boardwalk at Lincoln Park Zoo",
  "rating": 4.7,
  "review_count": 34,
  "latitude": 41.9178065834321,
  "longitude": -87.6331114768982,
  "location": {
   "address1": "South Pond Lincoln Park Zoo",
   "address2": "",
   "address3": "",
   "city": "Chicago",
   "zip_code": "60611",
   "country": "US",
   "state": "IL",
   "display_address": [
    "South Pond Lincoln Park Zoo",
    "Chicago, IL 60611"
   ]
  }
 },
 {
  "name": "Lincoln Park",
  "rating": 4.4,
  "review_count": 102,
  "latitude": 41.938925247844,
  "longitude": -87.63694678506332,
  "location": {
   "address1": "2045 Lincoln Park W",
   "address2": null,
   "address3": "",
   "city": "Chicago",
   "zip_code": "60610",
   "country": "US",
   "state": "IL",
   "display_address": [
    "2045 Lincoln Park W",
    "Chicago, IL 60610"
   ]
  }
 },
 {
  "name": "Doggy Paddle Aquatic Center For Dogs",
  "rating": 4.2,
  "review_count": 123,
  "latitude": 41.914667,
  "longitude": -87.663309,
  "location": {
   "address1": "1430 W Willow St",
   "address2": null,
   "address3": "",
   "city": "Chicago",
   "zip_code": "60642",
   "country": "US",
   "state": "IL",
   "display_address": [
    "1430 W Willow St",
    "Chicago, IL 60642"
   ]
  }
 },
 {
  "name": "Ping Tom Memorial Park",
  "rating": 4.3,
  "review_count": 84,
  "latitude": 41.85695918314,
  "longitude": -87.634402088742,
  "location": {
   "address1": "300 W 19th St",
   "address2": "",
   "address3": "",
   "city": "Chicago",
   "zip_code": "60616",
   "country": "US",
   "state": "IL",
   "display_address": [
    "300 W 19th St",
    "Chicago, IL 60616"
   ]
  }
 },
 {
  "name": "Washington Square Park",
  "rating": 4.3,
  "review_count": 34,
  "latitude": 41.8999342,
  "longitude": -87.6311388,
  "location": {
   "address1": "901 N Clark St",
   "address2": "",
   "address3": "",
   "city": "Chicago",
   "zip_code": "60610",
   "country": "US",
   "state": "IL",
   "display_address": [
    "901 N Clark St",
    "Chicago, IL 60610"
   ]
  }
 },
 {
  "name": "The Park at Lakeshore East",
  "rating": 4.5,
  "review_count": 47,
  "latitude": 41.885980594423,
  "longitude": -87.61759122481,
  "location": {
   "address1": "411 E Benton Pl",
   "address2": "",
   "address3": "",
   "city": "Chicago",
   "zip_code": "60601",
   "country": "US",
   "state": "IL",
   "display_address": [
    "411 E Benton Pl",
    "Chicago, IL 60601"
   ]
  }
 },
 {
  "name": "Lake Shore Park",
  "rating": 4.3,
  "review_count": 24,
  "latitude": 41.8969333,
  "longitude": -87.6173388,
  "location": {
   "address1": "808 N Lake Shore Dr",
   "address2": "",
   "address3": "",
   "city": "Chicago",
   "zip_code": "60611",
   "country": "US",
   "state": "IL",
   "display_address": [
    "808 N Lake Shore Dr",
    "Chicago, IL 60611"
   ]
  }
 },
 {
  "name": "Mariano Park",
  "rating": 4.4,
  "review_count": 21,
  "latitude": 41.90181,
  "longitude": -87.628199,
  "location": {
   "address1": "1031 N State St",
   "address2": "",
   "address3": "",
   "city": "Chicago",
   "zip_code": "60610",
   "country": "US",
   "state": "IL",
   "display_address": [
    "1031 N State St",
    "Chicago, IL 60610"
   ]
  }
 },
 {
  "name": "North Park Village Nature Center",
  "rating": 4.6,
  "review_count": 70,
  "latitude": 41.9878746037679,
  "longitude": -87.7244325590962,
  "location": {
   "address1": "5801 N Pulaski Rd",
   "address2": "",
   "address3": "",
   "city": "Chicago",
   "zip_code": "60646",
   "country": "US",
   "state": "IL",
   "display_address": [
    "5801 N Pulaski Rd",
    "Chicago, IL 60646"
   ]
  }
 },
 {
  "name": "Scoville Park",
  "rating": 4.8,
  "review_count": 12,
  "latitude": 41.889465,
  "longitude": -87.795284,
  "location": {
   "address1": "800 W Lake St",
   "address2": "",
   "address3": "",
   "city": "Oak Park",
   "zip_code": "60301",
   "country": "US",
   "state": "IL",
   "display_address": [
    "800 W Lake St",
    "Oak Park, IL 60301"
   ]
  }
 },
 {
  "name": "Skinner Bark Park",
  "rating": 4.6,
  "review_count": 20,
  "latitude": 41.88042444984986,
  "longitude": -87.66170922436001,
  "location": {
   "address1": "17 S Loomis St",
   "address2": "",
   "address3": "",
   "city": "Chicago",
   "zip_code": "60607",
   "country": "US",
   "state": "IL",
   "display_address": [
    "17 S Loomis St",
    "Chicago, IL 60607"
   ]
  }
 },
 {
  "name": "Adams Playground Park",
  "rating": 4.8,
  "review_count": 36,
  "latitude": 41.9164999,
  "longitude": -87.65513061534425,
  "location": {
   "address1": "1919 N Seminary",
   "address2": "",
   "address3": "",
   "city": "Chicago",
   "zip_code": "60614",
   "country": "US",
   "state": "IL",
   "display_address": [
    "1919 N Seminary",
    "Chicago, IL 60614"
   ]
  }
 },
 {
  "name": "Milton Lee Olive Park",
  "rating": 4.6,
  "review_count": 46,
  "latitude": 41.892954920055,
  "longitude": -87.611668208183,
  "location": {
   "address1": "500 N Lake Shore Dr",
   "address2": "",
   "address3": "",
   "city": "Chicago",
   "zip_code": "60611",
   "country": "US",
   "state": "IL",
   "display_address": [
    "500 N Lake Shore Dr",
    "Chicago, IL 60611"
   ]
  }
 },
 {
  "name": "Smith Park - Chicago Park District",
  "rating": 4.3,
  "review_count": 18,
  "latitude": 41.893012707026635,
  "longitude": -87.69051985280817,
  "location": {
   "address1": "2526 W Grand Ave",
   "address2": null,
   "address3": "",
   "city": "Chicago",
   "zip_code": "60612",
   "country": "US",
   "state": "IL",
   "display_address": [
    "2526 W Grand Ave",
    "Chicago, IL 60612"
   ]
  }
 },
 {
  "name": "Mary Bartleme Park",
  "rating": 4.2,
  "review_count": 40,
  "latitude": 41.8801605,
  "longitude": -87.6506214,
  "location": {
   "address1": "115 S Sangamon St",
   "address2": "",
   "address3": "",
   "city": "Chicago",
   "zip_code": "60607",
   "country": "US",
   "state": "IL",
   "display_address": [
    "115 S Sangamon St",
    "Chicago, IL 60607"
   ]
  }
 },
 {
  "name": "Fred Anderson Park",
  "rating": 4.6,
  "review_count": 35,
  "latitude": 41.85973,
  "longitude": -87.62516,
  "location": {
   "address1": "1611 S. Wabash Ave",
   "address2": "",
   "address3": "",
   "city": "Chicago",
   "zip_code": "60601",
   "country": "US",
   "state": "IL",
   "display_address": [
    "1611 S. Wabash Ave",
    "Chicago, IL 60601"
   ]
  }
 },
 {
  "name": "Palmisano Park",
  "rating": 4.7,
  "review_count": 45,
  "latitude": 41.8443604,
  "longitude": -87.6465649,
  "location": {
   "address1": "2700 S Halsted",
   "address2": "",
   "address3": "",
   "city": "Chicago",
   "zip_code": "60608",
   "country": "US",
   "state": "IL",
   "display_address": [
    "2700 S Halsted",
    "Chicago, IL 60608"
   ]
  }
 },
 {
  "name": "Winnemac Park",
  "rating": 4.4,
  "review_count": 64,
  "latitude": 41.9744833,
  "longitude": -87.6795225,
  "location": {
   "address1": "5100 N Damen Ave",
   "address2": null,
   "address3": "",
   "city": "Chicago",
   "zip_code": "60625",
   "country": "US",
   "state": "IL",
   "display_address": [
    "5100 N Damen Ave",
    "Chicago, IL 60625"
   ]
  }
 },
 {
  "name": "Montrose Point Bird Sanctuary",
  "rating": 4.5,
  "review_count": 34,
  "latitude": 41.963112786736005,
  "longitude": -87.6328735351562,
  "location": {
   "address1": "200 W Montrose Harbor Dr",
   "address2": "",
   "address3": "Wilson & Montrose & North Simonds Drive",
   "city": "Chicago",
   "zip_code": "60660",
   "country": "US",
   "state": "IL",
   "display_address": [
    "200 W Montrose Harbor Dr",
    "Wilson & Montrose & North Simonds Drive",
    "Chicago, IL 60660"
   ]
  }
 },
 {
  "name": "Churchill Field Dog Park",
  "rating": 3.7,
  "review_count": 43,
  "latitude": 41.914647,
  "longitude": -87.6773659,
  "location": {
   "address1": "1825 N Damen Ave",
   "address2": null,
   "address3": "",
   "city": "Chicago",
   "zip_code": "60647",
   "country": "US",
   "state": "IL",
   "display_address": [
    "1825 N Damen Ave",
    "Chicago, IL 60647"
   ]
  }
 },
 {
  "name": "Margaret Donahue Park",
  "rating": 4.8,
  "review_count": 12,
  "latitude": 41.94191486570991,
  "longitude": -87.66029956107414,
  "location": {
   "address1": "1230 W School St",
   "address2": "",
   "address3": "",
   "city": "Chicago",
   "zip_code": "60657",
   "country": "US",
   "state": "IL",
   "display_address": [
    "1230 W School St",
    "Chicago, IL 60657"
   ]
  }
 },
 {
  "name": "Holstein Park",
  "rating": 3.6,
  "review_count": 54,
  "latitude": 41.92188,
  "longitude": -87.6856349,
  "location": {
   "address1": "2200 N Oakley Ave",
   "address2": "",
   "address3": "",
   "city": "Chicago",
   "zip_code": "60647",
   "country": "US",
   "state": "IL",
   "display_address": [
    "2200 N Oakley Ave",
    "Chicago, IL 60647"
   ]
  }
 },
 {
  "name": "Portage Park",
  "rating": 3.8,
  "review_count": 89,
  "latitude": 41.95507,
  "longitude": -87.7622549,
  "location": {
   "address1": "4100 N Long Ave",
   "address2": "",
   "address3": "",
   "city": "Chicago",
   "zip_code": "60641",
   "country": "US",
   "state": "IL",
   "display_address": [
    "4100 N Long Ave",
    "Chicago, IL 60641"
   ]
  }
 },
 {
  "name": "Puptown",
  "rating": 4.3,
  "review_count": 58,
  "latitude": 41.97219,
  "longitude": -87.65045,
  "location": {
   "address1": "4921 N Marine Dr",
   "address2": "",
   "address3": "",
   "city": "Chicago",
   "zip_code": "60657",
   "country": "US",
   "state": "IL",
   "display_address": [
    "4921 N Marine Dr",
    "Chicago, IL 60657"
   ]
  }
 },
 {
  "name": "Arrigo Park",
  "rating": 4.6,
  "review_count": 21,
  "latitude": 41.871732,
  "longitude": -87.660183,
  "location": {
   "address1": "801 S Loomis St",
   "address2": null,
   "address3": "",
   "city": "Chicago",
   "zip_code": "60607",
   "country": "US",
   "state": "IL",
   "display_address": [
    "801 S Loomis St",
    "Chicago, IL 60607"
   ]
  }
 },
 {
  "name": "Skinner Park",
  "rating": 4.9,
  "review_count": 8,
  "latitude": 41.8790399283171,
  "longitude": -87.6621262729168,
  "location": {
   "address1": "1400 W Adams",
   "address2": "",
   "address3": "",
   "city": "Chicago",
   "zip_code": "60607",
   "country": "US",
   "state": "IL",
   "display_address": [
    "1400 W Adams",
    "Chicago, IL 60607"
   ]
  }
 },
 {
  "name": "Oak Park Conservatory",
  "rating": 4.7,
  "review_count": 59,
  "latitude": 41.87143,
  "longitude": -87.78968,
  "location": {
   "address1": "615 Garfield St",
   "address2": "",
   "address3": "",
   "city": "Oak Park",
   "zip_code": "60304",
   "country": "US",
   "state": "IL",
   "display_address": [
    "615 Garfield St",
    "Oak Park, IL 60304"
   ]
  }
 },
 {
  "name": "West Ridge Nature Park",
  "rating": 4.6,
  "review_count": 19,
  "latitude": 41.98716657597812,
  "longitude": -87.68847972676143,
  "location": {
   "address1": "5801 N Western Ave",
   "address2": "",
   "address3": "",
   "city": "Chicago",
   "zip_code": "60659",
   "country": "US",
   "state": "IL",
   "display_address": [
    "5801 N Western Ave",
    "Chicago, IL 60659"
   ]
  }
 },
 {
  "name": "Commercial Club Playground",
  "rating": 4.8,
  "review_count": 5,
  "latitude": 41.896629,
  "longitude": -87.67380656096604,
  "location": {
   "address1": "1845 W Rice St",
   "address2": "",
   "address3": "",
   "city": "Chicago",
   "zip_code": "60622",
   "country": "US",
   "state": "IL",
   "display_address": [
    "1845 W Rice St",
    "Chicago, IL 60622"
   ]
  }
 },
 {
  "name": "Palmer Square",
  "rating": 4.2,
  "review_count": 34,
  "latitude": 41.921008,
  "longitude": -87.705231,
  "location": {
   "address1": "W Palmer Square",
   "address2": "",
   "address3": "",
   "city": "Chicago",
   "zip_code": "60647",
   "country": "US",
   "state": "IL",
   "display_address": [
    "W Palmer Square",
    "Chicago, IL 60647"
   ]
  }
 },
 {
  "name": "Grant Bark Park",
  "rating": 4.3,
  "review_count": 29,
  "latitude": 41.8705283115567,
  "longitude": -87.6216843575122,
  "location": {
   "address1": "900 S Columbus Dr",
   "address2": "",
   "address3": "",
   "city": "Chicago",
   "zip_code": "60605",
   "country": "US",
   "state": "IL",
   "display_address": [
    "900 S Columbus Dr",
    "Chicago, IL 60605"
   ]
  }
 },
 {
  "name": "North Branch Trail",
  "rating": 4.6,
  "review_count": 48,
  "latitude": 41.9974031299353,
  "longitude": -87.7854656428099,
  "location": {
   "address1": "6300 W Devon Ave",
   "address2": "",
   "address3": "",
   "city": "Chicago",
   "zip_code": "60645",
   "country": "US",
   "state": "IL",
   "display_address": [
    "6300 W Devon Ave",
    "Chicago, IL 60645"
   ]
  }
 },
 {
  "name": "Eckhart Park - Chicago Park District",
  "rating": 3.4,
  "review_count": 44,
  "latitude": 41.897196,
  "longitude": -87.661225,
  "location": {
   "address1": "1330 W Chicago Ave",
   "address2": "",
   "address3": "",
   "city": "Chicago",
   "zip_code": "60622",
   "country": "US",
   "state": "IL",
   "display_address": [
    "1330 W Chicago Ave",
    "Chicago, IL 60622"
   ]
  }
 },
 {
  "name": "Chicago Park District - Welles Park",
  "rating": 4.0,
  "review_count": 56,
  "latitude": 41.96240358965201,
  "longitude": -87.68629569788955,
  "location": {
   "address1": "2333 W Sunnyside Ave",
   "address2": "",
   "address3": "",
   "city": "Chicago",
   "zip_code": "60625",
   "country": "US",
   "state": "IL",
   "display_address": [
    "2333 W Sunnyside Ave",
    "Chicago, IL 60625"
   ]
  }
 },
 {
  "name": "Gompers Park",
  "rating": 4.5,
  "review_count": 28,
  "latitude": 41.976337813352515,
  "longitude": -87.7368838,
  "location": {
   "address1": "4222 W Foster Ave",
   "address2": null,
   "address3": "",
   "city": "Chicago",
   "zip_code": "60630",
   "country": "US",
   "state": "IL",
   "display_address": [
    "4222 W Foster Ave",
    "Chicago, IL 60630"
   ]
  }
 },
 {
  "name": "Kilbourn Park & Organic Green House",
  "rating": 4.9,
  "review_count": 15,
  "latitude": 41.9444149,
  "longitude": -87.739639,
  "location": {
   "address1": "3501 N Kilbourn Ave",
   "address2": "",
   "address3": "",
   "city": "Chicago",
   "zip_code": "60641",
   "country": "US",
   "state": "IL",
   "display_address": [
    "3501 N Kilbourn Ave",
    "Chicago, IL 60641"
   ]
  }
 },
 {
  "name": "Erie Park",
  "rating": 4.3,
  "review_count": 21,
  "latitude": 41.89340418048148,
  "longitude": -87.6417633588956,
  "location": {
   "address1": "630 N Kingsbury St",
   "address2": "",
   "address3": "",
   "city": "Chicago",
   "zip_code": "60610",
   "country": "US",
   "state": "IL",
   "display_address": [
    "630 N Kingsbury St",
    "Chicago, IL 60610"
   ]
  }
 },
 {
  "name": "Haas Park",
  "rating": 4.6,
  "review_count": 11,
  "latitude": 41.9249956,
  "longitude": -87.6951523,
  "location": {
   "address1": "2402 N Washtenaw Ave",
   "address2": "",
   "address3": "",
   "city": "Chicago",
   "zip_code": "60647",
   "country": "US",
   "state": "IL",
   "display_address": [
    "2402 N Washtenaw Ave",
    "Chicago, IL 60647"
   ]
  }
 },
 {
  "name": "Douglas Park",
  "rating": 3.9,
  "review_count": 25,
  "latitude": 41.862119,
  "longitude": -87.699474,
  "location": {
   "address1": "1401 S Sacramento Dr",
   "address2": "",
   "address3": "",
   "city": "Chicago",
   "zip_code": "60623",
   "country": "US",
   "state": "IL",
   "display_address": [
    "1401 S Sacramento Dr",
    "Chicago, IL 60623"
   ]
  }
 },
 {
  "name": "Seneca Park",
  "rating": 4.3,
  "review_count": 18,
  "latitude": 41.89716169430479,
  "longitude": -87.6223240588337,
  "location": {
   "address1": "228 E Chicago Ave",
   "address2": "",
   "address3": "",
   "city": "Chicago",
   "zip_code": "60611",
   "country": "US",
   "state": "IL",
   "display_address": [
    "228 E Chicago Ave",
    "Chicago, IL 60611"
   ]
  }
 },
 {
  "name": "North Pond Nature Sanctuary",
  "rating": 4.5,
  "review_count": 11,
  "latitude": 41.9280803527177,
  "longitude": -87.6369094848633,
  "location": {
   "address1": "2610 N Cannon Dr",
   "address2": "",
   "address3": "",
   "city": "Chicago",
   "zip_code": "60614",
   "country": "US",
   "state": "IL",
   "display_address": [
    "2610 N Cannon Dr",
    "Chicago, IL 60614"
   ]
  }
 },
 {
  "name": "Grant Park Rose Garden",
  "rating": 4.8,
  "review_count": 8,
  "latitude": 41.87831811,
  "longitude": -87.62033096,
  "location": {
   "address1": "343 E Jackson Dr",
   "address2": "",
   "address3": "",
   "city": "Chicago",
   "zip_code": "60605",
   "country": "US",
   "state": "IL",
   "display_address": [
    "343 E Jackson Dr",
    "Chicago, IL 60605"
   ]
  }
 },
 {
  "name": "Berger Park",
  "rating": 4.2,
  "review_count": 24,
  "latitude": 41.9947845,
  "longitude": -87.6553686,
  "location": {
   "address1": "6205 N Sheridan Rd",
   "address2": "",
   "address3": "",
   "city": "Chicago",
   "zip_code": "60660",
   "country": "US",
   "state": "IL",
   "display_address": [
    "6205 N Sheridan Rd",
    "Chicago, IL 60660"
   ]
  }
 },
 {
  "name": "Chicago Park District - River Park",
  "rating": 3.8,
  "review_count": 29,
  "latitude": 41.974111,
  "longitude": -87.7014049,
  "location": {
   "address1": "5100 N Francisco Ave",
   "address2": null,
   "address3": "",
   "city": "Chicago",
   "zip_code": "60625",
   "country": "US",
   "state": "IL",
   "display_address": [
    "5100 N Francisco Ave",
    "Chicago, IL 60625"
   ]
  }
 },
 {
  "name": "Union Park",
  "rating": 3.4,
  "review_count": 20,
  "latitude": 41.884073,
  "longitude": -87.665419,
  "location": {
   "address1": "1501 W Randolph St",
   "address2": "",
   "address3": "",
   "city": "Chicago",
   "zip_code": "60610",
   "country": "US",
   "state": "IL",
   "display_address": [
    "1501 W Randolph St",
    "Chicago, IL 60610"
   ]
  }
 },
 {
  "name": "Clarendon Park",
  "rating": 4.7,
  "review_count": 7,
  "latitude": 41.9631777568729,
  "longitude": -87.648799046513,
  "location": {
   "address1": "4501 N Clarendon Ave",
   "address2": "",
   "address3": "",
   "city": "Chicago",
   "zip_code": "60640",
   "country": "US",
   "state": "IL",
   "display_address": [
    "4501 N Clarendon Ave",
    "Chicago, IL 60640"
   ]
  }
 },
 {
  "name": "Kosciuszko Park",
  "rating": 3.8,
  "review_count": 18,
  "latitude": 41.9307066500187,
  "longitude": -87.7233094722033,
  "location": {
   "address1": "2732 N Avers Ave",
   "address2": "",
   "address3": "",
   "city": "Chicago",
   "zip_code": "60686",
   "country": "US",
   "state": "IL",
   "display_address": [
    "2732 N Avers Ave",
    "Chicago, IL 60686"
   ]
  }
 },
 {
  "name": "Pulaski Park Fieldhouse",
  "rating": 4.4,
  "review_count": 11,
  "latitude": 41.9069151,
  "longitude": -87.6636025,
  "location": {
   "address1": "1419 W Blackhawk St",
   "address2": "",
   "address3": "",
   "city": "Chicago",
   "zip_code": "60622",
   "country": "US",
   "state": "IL",
   "display_address": [
    "1419 W Blackhawk St",
    "Chicago, IL 60622"
   ]
  }
 },
 {
  "name": "Logan Square Dog Park",
  "rating": 4.4,
  "review_count": 15,
  "latitude": 41.92749,
  "longitude": -87.688118,
  "location": {
   "address1": "2526 N Western Ave",
   "address2": "",
   "address3": "",
   "city": "Chicago",
   "zip_code": "60647",
   "country": "US",
   "state": "IL",
   "display_address": [
    "2526 N Western Ave",
    "Chicago, IL 60647"
   ]
  }
 },
 {
  "name": "Mckinley Park",
  "rating": 4.2,
  "review_count": 11,
  "latitude": 41.824609522162426,
  "longitude": -87.67987420449731,
  "location": {
   "address1": "2210 W Pershing Rd",
   "address2": "",
   "address3": "",
   "city": "Chicago",
   "zip_code": "60609",
   "country": "US",
   "state": "IL",
   "display_address": [
    "2210 W Pershing Rd",
    "Chicago, IL 60609"
   ]
  }
 },
 {
  "name": "Chicago Park District - Jefferson Memorial Park",
  "rating": 4.1,
  "review_count": 17,
  "latitude": 41.96850553544424,
  "longitude": -87.7636825189759,
  "location": {
   "address1": "4822 N Long Ave",
   "address2": "",
   "address3": "",
   "city": "Chicago",
   "zip_code": "60630",
   "country": "US",
   "state": "IL",
   "display_address": [
    "4822 N Long Ave",
    "Chicago, IL 60630"
   ]
  }
 },
 {
  "name": "Independence Park",
  "rating": 3.9,
  "review_count": 23,
  "latitude": 41.95262142119797,
  "longitude": -87.72360828543947,
  "location": {
   "address1": "3945 N Springfield Ave",
   "address2": "",
   "address3": "",
   "city": "Chicago",
   "zip_code": "60618",
   "country": "US",
   "state": "IL",
   "display_address": [
    "3945 N Springfield Ave",
    "Chicago, IL 60618"
   ]
  }
 },
 {
  "name": "The Green At 320",
  "rating": 5.0,
  "review_count": 3,
  "latitude": 41.87702,
  "longitude": -87.64036,
  "location": {
   "address1": "320 S Canal St",
   "address2": "",
   "address3": null,
   "city": "Chicago",
   "zip_code": "60606",
   "country": "US",
   "state": "IL",
   "display_address": [
    "320 S Canal St",
    "Chicago, IL 60606"
   ]
  }
 },
 {
  "name": "Cricket Hill",
  "rating": 4.2,
  "review_count": 11,
  "latitude": 41.9643087210033,
  "longitude": -87.6425743103027,
  "location": {
   "address1": "660 W Montrose Dr",
   "address2": "",
   "address3": "",
   "city": "Chicago",
   "zip_code": "60613",
   "country": "US",
   "state": "IL",
   "display_address": [
    "660 W Montrose Dr",
    "Chicago, IL 60613"
   ]
  }
 },
 {
  "name": "Hamlin Park",
  "rating": 3.8,
  "review_count": 39,
  "latitude": 41.9365766644478,
  "longitude": -87.680624127388,
  "location": {
   "address1": "3035 N Hoyne Ave",
   "address2": "",
   "address3": "",
   "city": "Chicago",
   "zip_code": "60618",
   "country": "US",
   "state": "IL",
   "display_address": [
    "3035 N Hoyne Ave",
    "Chicago, IL 60618"
   ]
  }
 },
 {
  "name": "Churchill Field Park",
  "rating": 3.4,
  "review_count": 10,
  "latitude": 41.914647,
  "longitude": -87.6773659,
  "location": {
   "address1": "1825 N Damen Ave",
   "address2": "",
   "address3": "",
   "city": "Chicago",
   "zip_code": "60614",
   "country": "US",
   "state": "IL",
   "display_address": [
    "1825 N Damen Ave",
    "Chicago, IL 60614"
   ]
  }
 },
 {
  "name": "Ward Dog Friendly Area",
  "rating": 4.1,
  "review_count": 14,
  "latitude": 41.8943139409179,
  "longitude": -87.6431825011969,
  "location": {
   "address1": "630 N Kingsbury St",
   "address2": "",
   "address3": null,
   "city": "Chicago",
   "zip_code": "60654",
   "country": "US",
   "state": "IL",
   "display_address": [
    "630 N Kingsbury St",
    "Chicago, IL 60654"
   ]
  }
 },
 {
  "name": "Dog Beach at Belmont Harbor",
  "rating": 3.8,
  "review_count": 43,
  "latitude": 41.9452272071354,
  "longitude": -87.6403362555475,
  "location": {
   "address1": "3500 N Lake Shore Dr",
   "address2": null,
   "address3": "",
   "city": "Chicago",
   "zip_code": "60686",
   "country": "US",
   "state": "IL",
   "display_address": [
    "3500 N Lake Shore Dr",
    "Chicago, IL 60686"
   ]
  }
 },
 {
  "name": "Gold Star Families Memorial and Park",
  "rating": 4.9,
  "review_count": 7,
  "latitude": 41.86243789218674,
  "longitude": -87.61405085003545,
  "location": {
   "address1": "1410 Special Olympics Dr",
   "address2": "",
   "address3": "",
   "city": "Chicago",
   "zip_code": "60605",
   "country": "US",
   "state": "IL",
   "display_address": [
    "1410 Special Olympics Dr",
    "Chicago, IL 60605"
   ]
  }
 },
 {
  "name": "Northerly Island Park",
  "rating": 3.5,
  "review_count": 97,
  "latitude": 41.86113996216035,
  "longitude": -87.609921,
  "location": {
   "address1": "1400 S Linn White Dr",
   "address2": "",
   "address3": "",
   "city": "Chicago",
   "zip_code": "60605",
   "country": "US",
   "state": "IL",
   "display_address": [
    "1400 S Linn White Dr",
    "Chicago, IL 60605"
   ]
  }
 },
 {
  "name": "Chase Park",
  "rating": 3.8,
  "review_count": 29,
  "latitude": 41.96718,
  "longitude": -87.6692651,
  "location": {
   "address1": "4701 N Ashland",
   "address2": "",
   "address3": "",
   "city": "Chicago",
   "zip_code": "60640",
   "country": "US",
   "state": "IL",
   "display_address": [
    "4701 N Ashland",
    "Chicago, IL 60640"
   ]
  }
 },
 {
  "name": "Horner Park",
  "rating": 3.9,
  "review_count": 52,
  "latitude": 41.960563445128805,
  "longitude": -87.69771231446835,
  "location": {
   "address1": "2741 W Montrose Ave",
   "address2": "",
   "address3": "",
   "city": "Chicago",
   "zip_code": "60618",
   "country": "US",
   "state": "IL",
   "display_address": [
    "2741 W Montrose Ave",
    "Chicago, IL 60618"
   ]
  }
 },
 {
  "name": "Tobey Prinz Beach Park",
  "rating": 4.4,
  "review_count": 22,
  "latitude": 42.005533,
  "longitude": -87.657515,
  "location": {
   "address1": "1050 W Pratt",
   "address2": "",
   "address3": "",
   "city": "Chicago",
   "zip_code": "60626",
   "country": "US",
   "state": "IL",
   "display_address": [
    "1050 W Pratt",
    "Chicago, IL 60626"
   ]
  }
 },
 {
  "name": "Wiggly Field",
  "rating": 3.2,
  "review_count": 89,
  "latitude": 41.9305267333984,
  "longitude": -87.653434753418,
  "location": {
   "address1": "2645 N Sheffield Ave",
   "address2": null,
   "address3": "",
   "city": "Chicago",
   "zip_code": "60686",
   "country": "US",
   "state": "IL",
   "display_address": [
    "2645 N Sheffield Ave",
    "Chicago, IL 60686"
   ]
  }
 },
 {
  "name": "Brands Park",
  "rating": 3.9,
  "review_count": 8,
  "latitude": 41.9405269,
  "longitude": -87.6997038,
  "location": {
   "address1": "3259 N Elston Ave",
   "address2": "",
   "address3": "",
   "city": "Chicago",
   "zip_code": "60618",
   "country": "US",
   "state": "IL",
   "display_address": [
    "3259 N Elston Ave",
    "Chicago, IL 60618"
   ]
  }
 },
 {
  "name": "Lucy Flower Park",
  "rating": 4.2,
  "review_count": 5,
  "latitude": 41.9148541034437,
  "longitude": -87.6911063504363,
  "location": {
   "address1": "2554 W Moffat St",
   "address2": "",
   "address3": "",
   "city": "Chicago",
   "zip_code": "60647",
   "country": "US",
   "state": "IL",
   "display_address": [
    "2554 W Moffat St",
    "Chicago, IL 60647"
   ]
  }
 },
 {
  "name": "Lincoln Park Chess Pavilion",
  "rating": 5.0,
  "review_count": 6,
  "latitude": 41.911316040085,
  "longitude": -87.6250094297817,
  "location": {
   "address1": "1601 N Lake Shore Dr",
   "address2": "",
   "address3": "",
   "city": "Chicago",
   "zip_code": "60614",
   "country": "US",
   "state": "IL",
   "display_address": [
    "1601 N Lake Shore Dr",
    "Chicago, IL 60614"
   ]
  }
 },
 {
  "name": "Horner Dog Friendly Area",
  "rating": 4.6,
  "review_count": 8,
  "latitude": 41.957808,
  "longitude": -87.696286,
  "location": {
   "address1": "2741 W Irving Park Rd",
   "address2": "",
   "address3": null,
   "city": "Chicago",
   "zip_code": "60618",
   "country": "US",
   "state": "IL",
   "display_address": [
    "2741 W Irving Park Rd",
    "Chicago, IL 60618"
   ]
  }
 },
 {
  "name": "North Shore Channel Trail",
  "rating": 4.3,
  "review_count": 21,
  "latitude": 41.9721601903439,
  "longitude": -87.7012402564287,
  "location": {
   "address1": "Argyle St & Francisco Ave",
   "address2": "",
   "address3": "",
   "city": "Chicago",
   "zip_code": "60686",
   "country": "US",
   "state": "IL",
   "display_address": [
    "Argyle St & Francisco Ave",
    "Chicago, IL 60686"
   ]
  }
 },
 {
  "name": "Hartigan Park & Beach",
  "rating": 4.7,
  "review_count": 12,
  "latitude": 42.0025274902582,
  "longitude": -87.6578293740749,
  "location": {
   "address1": "1031 W Albion Ave",
   "address2": "",
   "address3": "",
   "city": "Chicago",
   "zip_code": "60626",
   "country": "US",
   "state": "IL",
   "display_address": [
    "1031 W Albion Ave",
    "Chicago, IL 60626"
   ]
  }
 },
 {
  "name": "Caldwell Woods",
  "rating": 4.5,
  "review_count": 26,
  "latitude": 41.9991288621352,
  "longitude": -87.7873524043102,
  "location": {
   "address1": "6200 W Devon Ave",
   "address2": "",
   "address3": "",
   "city": "Chicago",
   "zip_code": "60645",
   "country": "US",
   "state": "IL",
   "display_address": [
    "6200 W Devon Ave",
    "Chicago, IL 60645"
   ]
  }
 },
 {
  "name": "Mayfair Park",
  "rating": 4.6,
  "review_count": 8,
  "latitude": 41.9627349,
  "longitude": -87.7421528,
  "location": {
   "address1": "4550 W Sunnyside Ave",
   "address2": "",
   "address3": "",
   "city": "Chicago",
   "zip_code": "60630",
   "country": "US",
   "state": "IL",
   "display_address": [
    "4550 W Sunnyside Ave",
    "Chicago, IL 60630"
   ]
  }
 },
 {
  "name": "Garfield Park",
  "rating": 3.4,
  "review_count": 9,
  "latitude": 41.8816052,
  "longitude": -87.7160004,
  "location": {
   "address1": "100 N Central Park Ave",
   "address2": "",
   "address3": "",
   "city": "Chicago",
   "zip_code": "60624",
   "country": "US",
   "state": "IL",
   "display_address": [
    "100 N Central Park Ave",
    "Chicago, IL 60624"
   ]
  }
 },
 {
  "name": "Harrison Park",
  "rating": 3.6,
  "review_count": 19,
  "latitude": 41.856880639455326,
  "longitude": -87.67368150059227,
  "location": {
   "address1": "1824 S Wood St",
   "address2": "",
   "address3": "",
   "city": "Chicago",
   "zip_code": "60608",
   "country": "US",
   "state": "IL",
   "display_address": [
    "1824 S Wood St",
    "Chicago, IL 60608"
   ]
  }
 },
 {
  "name": "McGuane Park",
  "rating": 4.0,
  "review_count": 9,
  "latitude": 41.8413238,
  "longitude": -87.6494458,
  "location": {
   "address1": "2901 S Poplar Ave",
   "address2": "",
   "address3": "",
   "city": "Chicago",
   "zip_code": "60608",
   "country": "US",
   "state": "IL",
   "display_address": [
    "2901 S Poplar Ave",
    "Chicago, IL 60608"
   ]
  }
 },
 {
  "name": "Eugene Field Park",
  "rating": 4.5,
  "review_count": 15,
  "latitude": 41.9736903,
  "longitude": -87.7221749,
  "location": {
   "address1": "5100 N Ridgeway Ave",
   "address2": "",
   "address3": "",
   "city": "Chicago",
   "zip_code": "60625",
   "country": "US",
   "state": "IL",
   "display_address": [
    "5100 N Ridgeway Ave",
    "Chicago, IL 60625"
   ]
  }
 },
 {
  "name": "Lincoln Park South Lagoon",
  "rating": 4.8,
  "review_count": 4,
  "latitude": 41.922772046001,
  "longitude": -87.6315343379974,
  "location": {
   "address1": "2204 N Cannon Dr",
   "address2": "",
   "address3": "",
   "city": "Chicago",
   "zip_code": "60614",
   "country": "US",
   "state": "IL",
   "display_address": [
    "2204 N Cannon Dr",
    "Chicago, IL 60614"
   ]
  }
 },
 {
  "name": "Columbus Park",
  "rating": 3.7,
  "review_count": 22,
  "latitude": 41.8737848,
  "longitude": -87.7648201,
  "location": {
   "address1": "500 S Central Ave",
   "address2": "",
   "address3": "",
   "city": "Chicago",
   "zip_code": "60644",
   "country": "US",
   "state": "IL",
   "display_address": [
    "500 S Central Ave",
    "Chicago, IL 60644"
   ]
  }
 },
 {
  "name": "Weisman Park",
  "rating": 4.8,
  "review_count": 4,
  "latitude": 41.935350894928,
  "longitude": -87.6517125964165,
  "location": {
   "address1": "901 W Oakdale Ave",
   "address2": "",
   "address3": "",
   "city": "Chicago",
   "zip_code": "60657",
   "country": "US",
   "state": "IL",
   "display_address": [
    "901 W Oakdale Ave",
    "Chicago, IL 60657"
   ]
  }
 },
 {
  "name": "Athletic Field Park",
  "rating": 4.1,
  "review_count": 9,
  "latitude": 41.9466523,
  "longitude": -87.71678,
  "location": {
   "address1": "3546 W Addison St",
   "address2": "",
   "address3": "",
   "city": "Chicago",
   "zip_code": "60618",
   "country": "US",
   "state": "IL",
   "display_address": [
    "3546 W Addison St",
    "Chicago, IL 60618"
   ]
  }
 },
 {
  "name": "Montgomery Ward Park",
  "rating": 4.6,
  "review_count": 7,
  "latitude": 41.893485941581,
  "longitude": -87.641977134374,
  "location": {
   "address1": "630 N Kingsbury St",
   "address2": "",
   "address3": "",
   "city": "Chicago",
   "zip_code": "60654",
   "country": "US",
   "state": "IL",
   "display_address": [
    "630 N Kingsbury St",
    "Chicago, IL 60654"
   ]
  }
 },
 {
  "name": "Waveland Park",
  "rating": 4.5,
  "review_count": 11,
  "latitude": 41.9493308,
  "longitude": -87.642858,
  "location": {
   "address1": "3580 N Recreation Dr",
   "address2": "",
   "address3": "",
   "city": "Chicago",
   "zip_code": "60657",
   "country": "US",
   "state": "IL",
   "display_address": [
    "3580 N Recreation Dr",
    "Chicago, IL 60657"
   ]
  }
 },
 {
  "name": "Broadway Armory Park",
  "rating": 3.5,
  "review_count": 11,
  "latitude": 41.989456525374095,
  "longitude": -87.66006858613484,
  "location": {
   "address1": "5917 N Broadway St",
   "address2": "",
   "address3": "",
   "city": "Chicago",
   "zip_code": "60660",
   "country": "US",
   "state": "IL",
   "display_address": [
    "5917 N Broadway St",
    "Chicago, IL 60660"
   ]
  }
 },
 {
  "name": "Summer Movies in the Parks hosted by the Chicago Park District",
  "rating": 4.1,
  "review_count": 16,
  "latitude": 41.85,
  "longitude": -87.65,
  "location": {
   "address1": "",
   "address2": "",
   "address3": "",
   "city": "Chicago",
   "zip_code": "60686",
   "country": "US",
   "state": "IL",
   "display_address": [
    "Chicago, IL 60686"
   ]
  }
 },
 {
  "name": "Mills Park",
  "rating": 4.7,
  "review_count": 11,
  "latitude": 41.884751531299415,
  "longitude": -87.80114008197584,
  "location": {
   "address1": "217 Home Ave",
   "address2": "",
   "address3": "",
   "city": "Oak Park",
   "zip_code": "60302",
   "country": "US",
   "state": "IL",
   "display_address": [
    "217 Home Ave",
    "Oak Park, IL 60302"
   ]
  }
 },
 {
  "name": "LaBagh Woods",
  "rating": 4.2,
  "review_count": 22,
  "latitude": 41.88879828293474,
  "longitude": -87.80532651165835,
  "location": {
   "address1": "536 North Harlem Ave",
   "address2": "",
   "address3": "",
   "city": "River Forest",
   "zip_code": "60305",
   "country": "US",
   "state": "IL",
   "display_address": [
    "536 North Harlem Ave",
    "River Forest, IL 60305"
   ]
  }
 },
 {
  "name": "Hamlin Dog Park",
  "rating": 3.4,
  "review_count": 38,
  "latitude": 41.9365766644478,
  "longitude": -87.680624127388,
  "location": {
   "address1": "3035 N Hoyne Ave",
   "address2": "",
   "address3": "",
   "city": "Chicago",
   "zip_code": "60618",
   "country": "US",
   "state": "IL",
   "display_address": [
    "3035 N Hoyne Ave",
    "Chicago, IL 60618"
   ]
  }
 },
 {
  "name": "Clark Park",
  "rating": 4.1,
  "review_count": 8,
  "latitude": 41.9414958357811,
  "longitude": -87.6931601017714,
  "location": {
   "address1": "3400 N Rockwell",
   "address2": "",
   "address3": "",
   "city": "Chicago",
   "zip_code": "60618",
   "country": "US",
   "state": "IL",
   "display_address": [
    "3400 N Rockwell",
    "Chicago, IL 60618"
   ]
  }
 },
 {
  "name": "Walsh Park Dog Area",
  "rating": 3.7,
  "review_count": 13,
  "latitude": 41.9132677,
  "longitude": -87.6678549,
  "location": {
   "address1": "1722 N Ashland Ave",
   "address2": "",
   "address3": "",
   "city": "Chicago",
   "zip_code": "60614",
   "country": "US",
   "state": "IL",
   "display_address": [
    "1722 N Ashland Ave",
    "Chicago, IL 60614"
   ]
  }
 },
 {
  "name": "Avondale Park",
  "rating": 3.7,
  "review_count": 11,
  "latitude": 41.94131230122329,
  "longitude": -87.71477607055229,
  "location": {
   "address1": "3516 W School St",
   "address2": "",
   "address3": "",
   "city": "Chicago",
   "zip_code": "60618",
   "country": "US",
   "state": "IL",
   "display_address": [
    "3516 W School St",
    "Chicago, IL 60618"
   ]
  }
 },
 {
  "name": "Jonquil Park",
  "rating": 4.0,
  "review_count": 13,
  "latitude": 41.928615,
  "longitude": -87.654724,
  "location": {
   "address1": "1023 W Wrightwood Ave",
   "address2": "",
   "address3": "",
   "city": "Chicago",
   "zip_code": "60614",
   "country": "US",
   "state": "IL",
   "display_address": [
    "1023 W Wrightwood Ave",
    "Chicago, IL 60614"
   ]
  }
 },
 {
  "name": "Julia de Burgos Park",
  "rating": 4.8,
  "review_count": 4,
  "latitude": 41.913918,
  "longitude": -87.704811,
  "location": {
   "address1": "1805 N Albany Ave",
   "address2": "",
   "address3": "",
   "city": "Chicago",
   "zip_code": "60647",
   "country": "US",
   "state": "IL",
   "display_address": [
    "1805 N Albany Ave",
    "Chicago, IL 60647"
   ]
  }
 },
 {
  "name": "Thillens Stadium",
  "rating": 4.2,
  "review_count": 13,
  "latitude": 41.9975501,
  "longitude": -87.7094449,
  "location": {
   "address1": "6404 N Kedzie",
   "address2": "",
   "address3": "",
   "city": "Chicago",
   "zip_code": "60645",
   "country": "US",
   "state": "IL",
   "display_address": [
    "6404 N Kedzie",
    "Chicago, IL 60645"
   ]
  }
 },
 {
  "name": "Burnham Skate Park",
  "rating": 4.5,
  "review_count": 6,
  "latitude": 41.856007266733506,
  "longitude": -87.61585614897473,
  "location": {
   "address1": "3400 S Lake Shore Dr",
   "address2": "",
   "address3": "",
   "city": "Chicago",
   "zip_code": "60616",
   "country": "US",
   "state": "IL",
   "display_address": [
    "3400 S Lake Shore Dr",
    "Chicago, IL 60616"
   ]
  }
 },
 {
  "name": "Polk Bros Park",
  "rating": 4.5,
  "review_count": 6,
  "latitude": 41.8916138,
  "longitude": -87.6078987,
  "location": {
   "address1": "600 E Grand Ave",
   "address2": "",
   "address3": null,
   "city": "Chicago",
   "zip_code": "60611",
   "country": "US",
   "state": "IL",
   "display_address": [
    "600 E Grand Ave",
    "Chicago, IL 60611"
   ]
  }
 },
 {
  "name": "Warren Park",
  "rating": 4.2,
  "review_count": 29,
  "latitude": 42.00149,
  "longitude": -87.6898351,
  "location": {
   "address1": "6601 N Western Ave",
   "address2": "",
   "address3": "",
   "city": "Chicago",
   "zip_code": "60645",
   "country": "US",
   "state": "IL",
   "display_address": [
    "6601 N Western Ave",
    "Chicago, IL 60645"
   ]
  }
 },
 {
  "name": "River Dog Friendly Area",
  "rating": 3.7,
  "review_count": 18,
  "latitude": 41.9740114645049,
  "longitude": -87.70198119999999,
  "location": {
   "address1": "5100 N Francisco",
   "address2": "",
   "address3": "",
   "city": "Chicago",
   "zip_code": "60625",
   "country": "US",
   "state": "IL",
   "display_address": [
    "5100 N Francisco",
    "Chicago, IL 60625"
   ]
  }
 },
 {
  "name": "Ridgeland Common Recreation Complex",
  "rating": 4.1,
  "review_count": 21,
  "latitude": 41.8879934474814,
  "longitude": -87.7872848510742,
  "location": {
   "address1": "415 Lake St",
   "address2": "",
   "address3": "",
   "city": "Oak Park",
   "zip_code": "60302",
   "country": "US",
   "state": "IL",
   "display_address": [
    "415 Lake St",
    "Oak Park, IL 60302"
   ]
  }
 },
 {
  "name": "West Loop Dog Park",
  "rating": 3.5,
  "review_count": 16,
  "latitude": 41.88045947683182,
  "longitude": -87.64966279389604,
  "location": {
   "address1": "100 S Peoria",
   "address2": "",
   "address3": "",
   "city": "Chicago",
   "zip_code": "60607",
   "country": "US",
   "state": "IL",
   "display_address": [
    "100 S Peoria",
    "Chicago, IL 60607"
   ]
  }
 },
 {
  "name": "Walsh Park",
  "rating": 4.0,
  "review_count": 8,
  "latitude": 41.9132677,
  "longitude": -87.6678549,
  "location": {
   "address1": "1722 N Ashland Ave",
   "address2": "",
   "address3": "",
   "city": "Chicago",
   "zip_code": "60622",
   "country": "US",
   "state": "IL",
   "display_address": [
    "1722 N Ashland Ave",
    "Chicago, IL 60622"
   ]
  }
 },
 {
  "name": "Jane Addams Memorial Park",
  "rating": 3.8,
  "review_count": 5,
  "latitude": 41.89238090704662,
  "longitude": -87.61277507382702,
  "location": {
   "address1": "550 E Grand Ave",
   "address2": "",
   "address3": null,
   "city": "Chicago",
   "zip_code": "60611",
   "country": "US",
   "state": "IL",
   "display_address": [
    "550 E Grand Ave",
    "Chicago, IL 60611"
   ]
  }
 },
 {
  "name": "Seward Park - Chicago Park District",
  "rating": 3.7,
  "review_count": 7,
  "latitude": 41.90342097771012,
  "longitude": -87.63834708650535,
  "location": {
   "address1": "375 W Elm St",
   "address2": "",
   "address3": "",
   "city": "Chicago",
   "zip_code": "60610",
   "country": "US",
   "state": "IL",
   "display_address": [
    "375 W Elm St",
    "Chicago, IL 60610"
   ]
  }
 },
 {
  "name": "Ohio Place Dog Park",
  "rating": 4.0,
  "review_count": 10,
  "latitude": 41.89257,
  "longitude": -87.6381,
  "location": {
   "address1": "350 W Ohio St",
   "address2": "",
   "address3": "",
   "city": "Chicago",
   "zip_code": "60654",
   "country": "US",
   "state": "IL",
   "display_address": [
    "350 W Ohio St",
    "Chicago, IL 60654"
   ]
  }
 },
 {
  "name": "Dvorak Park",
  "rating": 4.0,
  "review_count": 9,
  "latitude": 41.85432992026175,
  "longitude": -87.6539074,
  "location": {
   "address1": "1119 W Cullerton St",
   "address2": "",
   "address3": "",
   "city": "Chicago",
   "zip_code": "60608",
   "country": "US",
   "state": "IL",
   "display_address": [
    "1119 W Cullerton St",
    "Chicago, IL 60608"
   ]
  }
 },
 {
  "name": "Proksa Park",
  "rating": 4.6,
  "review_count": 11,
  "latitude": 41.837525,
  "longitude": -87.8002982,
  "location": {
   "address1": "3001 S Wisconsin Ave",
   "address2": "",
   "address3": "",
   "city": "Berwyn",
   "zip_code": "60402",
   "country": "US",
   "state": "IL",
   "display_address": [
    "3001 S Wisconsin Ave",
    "Berwyn, IL 60402"
   ]
  }
 },
 {
  "name": "Margate Park",
  "rating": 3.5,
  "review_count": 19,
  "latitude": 41.97209895881035,
  "longitude": -87.64977439158547,
  "location": {
   "address1": "4921 N Marine Dr",
   "address2": "",
   "address3": "",
   "city": "Chicago",
   "zip_code": "60640",
   "country": "US",
   "state": "IL",
   "display_address": [
    "4921 N Marine Dr",
    "Chicago, IL 60640"
   ]
  }
 },
 {
  "name": "Coliseum Park",
  "rating": 3.6,
  "review_count": 11,
  "latitude": 41.8621520464411,
  "longitude": -87.6261552053797,
  "location": {
   "address1": "1466 S Wabash Ave",
   "address2": "",
   "address3": "",
   "city": "Chicago",
   "zip_code": "60605",
   "country": "US",
   "state": "IL",
   "display_address": [
    "1466 S Wabash Ave",
    "Chicago, IL 60605"
   ]
  }
 },
 {
  "name": "Thaddeus S. \u201cTed\u201d Lechowicz Woods",
  "rating": 5.0,
  "review_count": 5,
  "latitude": 41.980803,
  "longitude": -87.755027,
  "location": {
   "address1": "5420 N Forest Glen Ave",
   "address2": "",
   "address3": null,
   "city": "Chicago",
   "zip_code": "60630",
   "country": "US",
   "state": "IL",
   "display_address": [
    "5420 N Forest Glen Ave",
    "Chicago, IL 60630"
   ]
  }
 },
 {
  "name": "Wilson Skate Park",
  "rating": 4.2,
  "review_count": 13,
  "latitude": 41.965526,
  "longitude": -87.64869,
  "location": {
   "address1": "700 W Wilson Ave",
   "address2": "",
   "address3": "",
   "city": "Chicago",
   "zip_code": "60640",
   "country": "US",
   "state": "IL",
   "display_address": [
    "700 W Wilson Ave",
    "Chicago, IL 60640"
   ]
  }
 },
 {
  "name": "Austin Gardens",
  "rating": 4.9,
  "review_count": 8,
  "latitude": 41.8899829018204,
  "longitude": -87.80102409999999,
  "location": {
   "address1": "167 Forest Ave",
   "address2": "",
   "address3": "",
   "city": "Oak Park",
   "zip_code": "60301",
   "country": "US",
   "state": "IL",
   "display_address": [
    "167 Forest Ave",
    "Oak Park, IL 60301"
   ]
  }
 },
 {
  "name": "Kids and Kites Festival",
  "rating": 4.8,
  "review_count": 4,
  "latitude": 41.964309,
  "longitude": -87.642861,
  "location": {
   "address1": "Cricket Hill",
   "address2": "W Wilson Ave",
   "address3": null,
   "city": "Chicago",
   "zip_code": "60640",
   "country": "US",
   "state": "IL",
   "display_address": [
    "Cricket Hill",
    "W Wilson Ave",
    "Chicago, IL 60640"
   ]
  }
 },
 {
  "name": "Sheridan Park",
  "rating": 4.0,
  "review_count": 3,
  "latitude": 41.8701155,
  "longitude": -87.6543549,
  "location": {
   "address1": "910 S Aberdeen St",
   "address2": "",
   "address3": "",
   "city": "Chicago",
   "zip_code": "60607",
   "country": "US",
   "state": "IL",
   "display_address": [
    "910 S Aberdeen St",
    "Chicago, IL 60607"
   ]
  }
 },
 {
  "name": "Fellger Park",
  "rating": 4.4,
  "review_count": 5,
  "latitude": 41.939836251881744,
  "longitude": -87.67893382825578,
  "location": {
   "address1": "2000 W Belmont Ave",
   "address2": "",
   "address3": "",
   "city": "Chicago",
   "zip_code": "60618",
   "country": "US",
   "state": "IL",
   "display_address": [
    "2000 W Belmont Ave",
    "Chicago, IL 60618"
   ]
  }
 },
 {
  "name": "Sheil Park",
  "rating": 3.4,
  "review_count": 11,
  "latitude": 41.9454848450727,
  "longitude": -87.663746533707,
  "location": {
   "address1": "3505 N Southport Ave",
   "address2": "",
   "address3": "",
   "city": "Chicago",
   "zip_code": "60657",
   "country": "US",
   "state": "IL",
   "display_address": [
    "3505 N Southport Ave",
    "Chicago, IL 60657"
   ]
  }
 },
 {
  "name": "Formal Garden",
  "rating": 5.0,
  "review_count": 2,
  "latitude": 41.903563126675394,
  "longitude": -87.70336771681062,
  "location": {
   "address1": "1221 N Sacramento Ave",
   "address2": "",
   "address3": null,
   "city": "Chicago",
   "zip_code": "60622",
   "country": "US",
   "state": "IL",
   "display_address": [
    "1221 N Sacramento Ave",
    "Chicago, IL 60622"
   ]
  }
 },
 {
  "name": "Wilson Park",
  "rating": 3.5,
  "review_count": 8,
  "latitude": 41.9645117,
  "longitude": -87.7580405,
  "location": {
   "address1": "4630 N Milwaukee Ave",
   "address2": "",
   "address3": "",
   "city": "Chicago",
   "zip_code": "60630",
   "country": "US",
   "state": "IL",
   "display_address": [
    "4630 N Milwaukee Ave",
    "Chicago, IL 60630"
   ]
  }
 },
 {
  "name": "Chicago Park District - Norwood Park",
  "rating": 4.3,
  "review_count": 12,
  "latitude": 41.9866293,
  "longitude": -87.7939919,
  "location": {
   "address1": "5801 N Natoma Ave",
   "address2": "",
   "address3": "",
   "city": "Chicago",
   "zip_code": "60630",
   "country": "US",
   "state": "IL",
   "display_address": [
    "5801 N Natoma Ave",
    "Chicago, IL 60630"
   ]
  }
 },
 {
  "name": "Grant Park Skate Park",
  "rating": 4.0,
  "review_count": 4,
  "latitude": 41.88238244254278,
  "longitude": -87.61936481279547,
  "location": {
   "address1": "337 E Randolph St",
   "address2": "",
   "address3": "",
   "city": "Chicago",
   "zip_code": "60601",
   "country": "US",
   "state": "IL",
   "display_address": [
    "337 E Randolph St",
    "Chicago, IL 60601"
   ]
  }
 },
 {
  "name": "Bickerdike Park",
  "rating": 3.9,
  "review_count": 8,
  "latitude": 41.892306,
  "longitude": -87.664725,
  "location": {
   "address1": "1461 W Ohio St",
   "address2": null,
   "address3": "",
   "city": "Chicago",
   "zip_code": "60622",
   "country": "US",
   "state": "IL",
   "display_address": [
    "1461 W Ohio St",
    "Chicago, IL 60622"
   ]
  }
 },
 {
  "name": "Ohio St Beach Swimming Section",
  "rating": 3.9,
  "review_count": 10,
  "latitude": 41.8934251162939,
  "longitude": -87.6128920515256,
  "location": {
   "address1": "Ohio St & Lake Shore Dr",
   "address2": "",
   "address3": "",
   "city": "Chicago",
   "zip_code": "60611",
   "country": "US",
   "state": "IL",
   "display_address": [
    "Ohio St & Lake Shore Dr",
    "Chicago, IL 60611"
   ]
  }
 },
 {
  "name": "California Park",
  "rating": 5.0,
  "review_count": 4,
  "latitude": 41.951081159659225,
  "longitude": -87.69756151881704,
  "location": {
   "address1": "3845 N California Ave",
   "address2": "",
   "address3": "",
   "city": "Chicago",
   "zip_code": "60686",
   "country": "US",
   "state": "IL",
   "display_address": [
    "3845 N California Ave",
    "Chicago, IL 60686"
   ]
  }
 },
 {
  "name": "Heritage Green Park",
  "rating": 3.6,
  "review_count": 9,
  "latitude": 41.879623,
  "longitude": -87.64318,
  "location": {
   "address1": "610-30 W Adams St",
   "address2": "",
   "address3": "",
   "city": "Chicago",
   "zip_code": "60661",
   "country": "US",
   "state": "IL",
   "display_address": [
    "610-30 W Adams St",
    "Chicago, IL 60661"
   ]
  }
 },
 {
  "name": "Proesel Park",
  "rating": 3.9,
  "review_count": 16,
  "latitude": 42.0071422,
  "longitude": -87.7383554,
  "location": {
   "address1": "6915 Kostner Ave",
   "address2": null,
   "address3": "",
   "city": "Lincolnwood",
   "zip_code": "60712",
   "country": "US",
   "state": "IL",
   "display_address": [
    "6915 Kostner Ave",
    "Lincolnwood, IL 60712"
   ]
  }
 },
 {
  "name": "River Esplanade Park",
  "rating": 5.0,
  "review_count": 4,
  "latitude": 41.8887647,
  "longitude": -87.617734,
  "location": {
   "address1": "401 E River Dr",
   "address2": "",
   "address3": "",
   "city": "Chicago",
   "zip_code": "60611",
   "country": "US",
   "state": "IL",
   "display_address": [
    "401 E River Dr",
    "Chicago, IL 60611"
   ]
  }
 },
 {
  "name": "Honore Park",
  "rating": 5.0,
  "review_count": 1,
  "latitude": 41.898361,
  "longitude": -87.673787,
  "location": {
   "address1": "916 N Honore St",
   "address2": "",
   "address3": "",
   "city": "Chicago",
   "zip_code": "60622",
   "country": "US",
   "state": "IL",
   "display_address": [
    "916 N Honore St",
    "Chicago, IL 60622"
   ]
  }
 },
 {
  "name": "La Follette Park - Chicago Park District",
  "rating": 4.0,
  "review_count": 4,
  "latitude": 41.90502543272224,
  "longitude": -87.75339480874028,
  "location": {
   "address1": "1333 N Laramie Ave",
   "address2": "",
   "address3": "",
   "city": "Chicago",
   "zip_code": "60651",
   "country": "US",
   "state": "IL",
   "display_address": [
    "1333 N Laramie Ave",
    "Chicago, IL 60651"
   ]
  }
 },
 {
  "name": "Park District of Forest Park",
  "rating": 4.0,
  "review_count": 19,
  "latitude": 41.872836,
  "longitude": -87.812422,
  "location": {
   "address1": "7501 Harrison St",
   "address2": "",
   "address3": "",
   "city": "Forest Park",
   "zip_code": "60130",
   "country": "US",
   "state": "IL",
   "display_address": [
    "7501 Harrison St",
    "Forest Park, IL 60130"
   ]
  }
 },
 {
  "name": "Ridgeway - West Trailhead",
  "rating": 5.0,
  "review_count": 2,
  "latitude": 41.9138714094475,
  "longitude": -87.7203258499503,
  "location": {
   "address1": "1600-3700 W BLOOMINGDALE",
   "address2": "",
   "address3": null,
   "city": "Chicago",
   "zip_code": "60647",
   "country": "US",
   "state": "IL",
   "display_address": [
    "1600-3700 W BLOOMINGDALE",
    "Chicago, IL 60647"
   ]
  }
 },
 {
  "name": "Wrightwood Park",
  "rating": 3.3,
  "review_count": 6,
  "latitude": 41.9277601,
  "longitude": -87.6659349,
  "location": {
   "address1": "2534 N Greenview Ave",
   "address2": "",
   "address3": "",
   "city": "Chicago",
   "zip_code": "60614",
   "country": "US",
   "state": "IL",
   "display_address": [
    "2534 N Greenview Ave",
    "Chicago, IL 60614"
   ]
  }
 },
 {
  "name": "Piazza DiMaggio",
  "rating": 4.1,
  "review_count": 8,
  "latitude": 41.869585054949,
  "longitude": -87.662877075914,
  "location": {
   "address1": "1437 W Taylor St",
   "address2": "",
   "address3": "",
   "city": "Chicago",
   "zip_code": "60607",
   "country": "US",
   "state": "IL",
   "display_address": [
    "1437 W Taylor St",
    "Chicago, IL 60607"
   ]
  }
 },
 {
  "name": "Spirit of Music Gardens",
  "rating": 4.0,
  "review_count": 1,
  "latitude": 41.873178822910525,
  "longitude": -87.62373917044229,
  "location": {
   "address1": "112 E Balbo Dr",
   "address2": "",
   "address3": null,
   "city": "Chicago",
   "zip_code": "60605",
   "country": "US",
   "state": "IL",
   "display_address": [
    "112 E Balbo Dr",
    "Chicago, IL 60605"
   ]
  }
 },
 {
  "name": "Foster Soccer Fields",
  "rating": 4.8,
  "review_count": 4,
  "latitude": 41.9756970491769,
  "longitude": -87.648612157425,
  "location": {
   "address1": "W Foster And N Simonds",
   "address2": "",
   "address3": "",
   "city": "Chicago",
   "zip_code": "60640",
   "country": "US",
   "state": "IL",
   "display_address": [
    "W Foster And N Simonds",
    "Chicago, IL 60640"
   ]
  }
 },
 {
  "name": "Peterson Park District",
  "rating": 3.5,
  "review_count": 13,
  "latitude": 41.988187,
  "longitude": -87.72034,
  "location": {
   "address1": "5801 N Pulaski Rd",
   "address2": "",
   "address3": "",
   "city": "Chicago",
   "zip_code": "60646",
   "country": "US",
   "state": "IL",
   "display_address": [
    "5801 N Pulaski Rd",
    "Chicago, IL 60646"
   ]
  }
 },
 {
  "name": "Artists of the Wall Festival",
  "rating": 5.0,
  "review_count": 2,
  "latitude": 42.0068479709816,
  "longitude": -87.6577287613464,
  "location": {
   "address1": "6900 North Loyola Park",
   "address2": "",
   "address3": "Loyal Park and Pratt Avenue",
   "city": "Chicago",
   "zip_code": "60626",
   "country": "US",
   "state": "IL",
   "display_address": [
    "6900 North Loyola Park",
    "Loyal Park and Pratt Avenue",
    "Chicago, IL 60626"
   ]
  }
 },
 {
  "name": "Legion Park",
  "rating": 4.7,
  "review_count": 6,
  "latitude": 41.9851404,
  "longitude": -87.7090925,
  "location": {
   "address1": "3200 W Hollywood Ave",
   "address2": "",
   "address3": "",
   "city": "Chicago",
   "zip_code": "60686",
   "country": "US",
   "state": "IL",
   "display_address": [
    "3200 W Hollywood Ave",
    "Chicago, IL 60686"
   ]
  }
 },
 {
  "name": "Lake Front Path Sledding Hill",
  "rating": 5.0,
  "review_count": 4,
  "latitude": 41.8581999,
  "longitude": -87.61525,
  "location": {
   "address1": "E 18th Dr",
   "address2": "",
   "address3": "S Museum Campus Dr",
   "city": "Chicago",
   "zip_code": "60616",
   "country": "US",
   "state": "IL",
   "display_address": [
    "E 18th Dr",
    "S Museum Campus Dr",
    "Chicago, IL 60616"
   ]
  }
 },
 {
  "name": "Cotton Tail Park",
  "rating": 4.5,
  "review_count": 2,
  "latitude": 41.8619749669461,
  "longitude": -87.6285258506891,
  "location": {
   "address1": "44 W 15th St",
   "address2": "",
   "address3": null,
   "city": "Chicago",
   "zip_code": "60605",
   "country": "US",
   "state": "IL",
   "display_address": [
    "44 W 15th St",
    "Chicago, IL 60605"
   ]
  }
 },
 {
  "name": "Roosevelt Park",
  "rating": 5.0,
  "review_count": 3,
  "latitude": 41.867447,
  "longitude": -87.629859,
  "location": {
   "address1": "62 W Roosevelt Rd",
   "address2": "",
   "address3": "",
   "city": "Chicago",
   "zip_code": "60605",
   "country": "US",
   "state": "IL",
   "display_address": [
    "62 W Roosevelt Rd",
    "Chicago, IL 60605"
   ]
  }
 },
 {
  "name": "Juniper Park",
  "rating": 4.0,
  "review_count": 3,
  "latitude": 41.9486636348685,
  "longitude": -87.6668304024147,
  "location": {
   "address1": "1501-1529 W Waveland Ave",
   "address2": "",
   "address3": "",
   "city": "Chicago",
   "zip_code": "60613",
   "country": "US",
   "state": "IL",
   "display_address": [
    "1501-1529 W Waveland Ave",
    "Chicago, IL 60613"
   ]
  }
 },
 {
  "name": "Norwood Dog Friendly Area",
  "rating": 3.1,
  "review_count": 27,
  "latitude": 41.98753641307651,
  "longitude": -87.7921887,
  "location": {
   "address1": "5899 N Avondale Ave",
   "address2": "",
   "address3": "",
   "city": "Chicago",
   "zip_code": "60631",
   "country": "US",
   "state": "IL",
   "display_address": [
    "5899 N Avondale Ave",
    "Chicago, IL 60631"
   ]
  }
 },
 {
  "name": "Lucy Ella Gonzales Parsons Park",
  "rating": 5.0,
  "review_count": 1,
  "latitude": 41.93912,
  "longitude": -87.74445,
  "location": {
   "address1": "4712 W Belmont Ave",
   "address2": "",
   "address3": null,
   "city": "Chicago",
   "zip_code": "60641",
   "country": "US",
   "state": "IL",
   "display_address": [
    "4712 W Belmont Ave",
    "Chicago, IL 60641"
   ]
  }
 },
 {
  "name": "Dunham Park",
  "rating": 4.1,
  "review_count": 13,
  "latitude": 41.965821804457065,
  "longitude": -87.78441194326363,
  "location": {
   "address1": "4638 N Melvina Ave",
   "address2": "",
   "address3": "",
   "city": "Chicago",
   "zip_code": "60630",
   "country": "US",
   "state": "IL",
   "display_address": [
    "4638 N Melvina Ave",
    "Chicago, IL 60630"
   ]
  }
 },
 {
  "name": "Chicago Park District - Fosco Peter Park",
  "rating": 3.4,
  "review_count": 7,
  "latitude": 41.864906,
  "longitude": -87.657729,
  "location": {
   "address1": "1312 S Racine Ave",
   "address2": "",
   "address3": "",
   "city": "Chicago",
   "zip_code": "60608",
   "country": "US",
   "state": "IL",
   "display_address": [
    "1312 S Racine Ave",
    "Chicago, IL 60608"
   ]
  }
 },
 {
  "name": "Chicago Park District - Riis Park",
  "rating": 3.2,
  "review_count": 14,
  "latitude": 41.9255860581904,
  "longitude": -87.78139469921436,
  "location": {
   "address1": "6100 W Fullerton Ave",
   "address2": "",
   "address3": "",
   "city": "Chicago",
   "zip_code": "60639",
   "country": "US",
   "state": "IL",
   "display_address": [
    "6100 W Fullerton Ave",
    "Chicago, IL 60639"
   ]
  }
 },
 {
  "name": "Connors Park",
  "rating": 4.2,
  "review_count": 5,
  "latitude": 41.8986533,
  "longitude": -87.6267351,
  "location": {
   "address1": "871 N Wabash Ave",
   "address2": "",
   "address3": "",
   "city": "Chicago",
   "zip_code": "60611",
   "country": "US",
   "state": "IL",
   "display_address": [
    "871 N Wabash Ave",
    "Chicago, IL 60611"
   ]
  }
 },
 {
  "name": "Clemente Park",
  "rating": 4.0,
  "review_count": 1,
  "latitude": 41.903322,
  "longitude": -87.6859255,
  "location": {
   "address1": "2334 W Division St",
   "address2": "",
   "address3": "",
   "city": "Chicago",
   "zip_code": "60607",
   "country": "US",
   "state": "IL",
   "display_address": [
    "2334 W Division St",
    "Chicago, IL 60607"
   ]
  }
 },
 {
  "name": "Rutherford Sayre Park",
  "rating": 4.3,
  "review_count": 6,
  "latitude": 41.9209938,
  "longitude": -87.7974396,
  "location": {
   "address1": "6871 W Belden Ave",
   "address2": "",
   "address3": "",
   "city": "Chicago",
   "zip_code": "60707",
   "country": "US",
   "state": "IL",
   "display_address": [
    "6871 W Belden Ave",
    "Chicago, IL 60707"
   ]
  }
 },
 {
  "name": "Ken-Well Park",
  "rating": 5.0,
  "review_count": 2,
  "latitude": 41.934677,
  "longitude": -87.733459,
  "location": {
   "address1": "2945 N Kenosha Ave",
   "address2": "",
   "address3": "",
   "city": "Chicago",
   "zip_code": "60641",
   "country": "US",
   "state": "IL",
   "display_address": [
    "2945 N Kenosha Ave",
    "Chicago, IL 60641"
   ]
  }
 },
 {
  "name": "West Town Dog Park",
  "rating": 3.2,
  "review_count": 5,
  "latitude": 41.89681805,
  "longitude": -87.67442167,
  "location": {
   "address1": "1891 W Rice St",
   "address2": "",
   "address3": "",
   "city": "Chicago",
   "zip_code": "60622",
   "country": "US",
   "state": "IL",
   "display_address": [
    "1891 W Rice St",
    "Chicago, IL 60622"
   ]
  }
 },
 {
  "name": "Buttercup Playlot Park",
  "rating": 3.8,
  "review_count": 5,
  "latitude": 41.9716962377052,
  "longitude": -87.6548245420371,
  "location": {
   "address1": "4901 N Sheridan Rd",
   "address2": "",
   "address3": "",
   "city": "Chicago",
   "zip_code": "60640",
   "country": "US",
   "state": "IL",
   "display_address": [
    "4901 N Sheridan Rd",
    "Chicago, IL 60640"
   ]
  }
 },
 {
  "name": "Challenger Park",
  "rating": 3.1,
  "review_count": 19,
  "latitude": 41.9587026655504,
  "longitude": -87.6571093171476,
  "location": {
   "address1": "1100 W Irving Park Rd",
   "address2": "",
   "address3": "",
   "city": "Chicago",
   "zip_code": "60613",
   "country": "US",
   "state": "IL",
   "display_address": [
    "1100 W Irving Park Rd",
    "Chicago, IL 60613"
   ]
  }
 },
 {
  "name": "Lane Beach Park",
  "rating": 5.0,
  "review_count": 2,
  "latitude": 41.9898100846344,
  "longitude": -87.6551176607609,
  "location": {
   "address1": "5915 N Sheridan Rd",
   "address2": "",
   "address3": "Chicago Park District",
   "city": "Chicago",
   "zip_code": "60660",
   "country": "US",
   "state": "IL",
   "display_address": [
    "5915 N Sheridan Rd",
    "Chicago Park District",
    "Chicago, IL 60660"
   ]
  }
 },
 {
  "name": "Dean Playground Park",
  "rating": 4.0,
  "review_count": 1,
  "latitude": 41.9069,
  "longitude": -87.67085,
  "location": {
   "address1": "1344 N Dean St",
   "address2": "",
   "address3": "",
   "city": "Chicago",
   "zip_code": "60622",
   "country": "US",
   "state": "IL",
   "display_address": [
    "1344 N Dean St",
    "Chicago, IL 60622"
   ]
  }
 },
 {
  "name": "Addams/Medill Park",
  "rating": 5.0,
  "review_count": 1,
  "latitude": 41.8626823308788,
  "longitude": -87.6631005853415,
  "location": {
   "address1": "1301 W 14th St",
   "address2": "",
   "address3": "",
   "city": "Chicago",
   "zip_code": "60608",
   "country": "US",
   "state": "IL",
   "display_address": [
    "1301 W 14th St",
    "Chicago, IL 60608"
   ]
  }
 },
 {
  "name": "Stanton Park",
  "rating": 5.0,
  "review_count": 1,
  "latitude": 41.905972147932,
  "longitude": -87.6442583333334,
  "location": {
   "address1": "618 W Scott St",
   "address2": "",
   "address3": null,
   "city": "Chicago",
   "zip_code": "60610",
   "country": "US",
   "state": "IL",
   "display_address": [
    "618 W Scott St",
    "Chicago, IL 60610"
   ]
  }
 },
 {
  "name": "Gross Park",
  "rating": 5.0,
  "review_count": 1,
  "latitude": 41.9425848,
  "longitude": -87.6713749,
  "location": {
   "address1": "1700 W Henderson St",
   "address2": "",
   "address3": null,
   "city": "Chicago",
   "zip_code": "60657",
   "country": "US",
   "state": "IL",
   "display_address": [
    "1700 W Henderson St",
    "Chicago, IL 60657"
   ]
  }
 },
 {
  "name": "Chi Che Wang Park",
  "rating": 4.5,
  "review_count": 2,
  "latitude": 41.9332826386302,
  "longitude": -87.6729189349083,
  "location": {
   "address1": "1762 W Diversey Pkwy",
   "address2": "",
   "address3": "",
   "city": "Chicago",
   "zip_code": "60614",
   "country": "US",
   "state": "IL",
   "display_address": [
    "1762 W Diversey Pkwy",
    "Chicago, IL 60614"
   ]
  }
 },
 {
  "name": "Gross Park",
  "rating": 3.6,
  "review_count": 5,
  "latitude": 41.9686749,
  "longitude": -87.6966985,
  "location": {
   "address1": "2708 W Lawrence Ave",
   "address2": "",
   "address3": "",
   "city": "Chicago",
   "zip_code": "60625",
   "country": "US",
   "state": "IL",
   "display_address": [
    "2708 W Lawrence Ave",
    "Chicago, IL 60625"
   ]
  }
 },
 {
  "name": "Mary Richardson Jones Park",
  "rating": 5.0,
  "review_count": 3,
  "latitude": 41.8666011840105,
  "longitude": -87.6285530626774,
  "location": {
   "address1": "1240 S Plymouth Ct",
   "address2": "",
   "address3": "",
   "city": "Chicago",
   "zip_code": "60605",
   "country": "US",
   "state": "IL",
   "display_address": [
    "1240 S Plymouth Ct",
    "Chicago, IL 60605"
   ]
  }
 },
 {
  "name": "Cancer Survivors Garden",
  "rating": 3.7,
  "review_count": 10,
  "latitude": 41.8836623407769,
  "longitude": -87.6175089577026,
  "location": {
   "address1": "Randolph St & Harbor Dr",
   "address2": "",
   "address3": "",
   "city": "Chicago",
   "zip_code": "60601",
   "country": "US",
   "state": "IL",
   "display_address": [
    "Randolph St & Harbor Dr",
    "Chicago, IL 60601"
   ]
  }
 },
 {
  "name": "Unity Playlot Park",
  "rating": 4.0,
  "review_count": 4,
  "latitude": 41.9299281784101,
  "longitude": -87.7124673128128,
  "location": {
   "address1": "2636 N Kimball Ave",
   "address2": "",
   "address3": "",
   "city": "Chicago",
   "zip_code": "60647",
   "country": "US",
   "state": "IL",
   "display_address": [
    "2636 N Kimball Ave",
    "Chicago, IL 60647"
   ]
  }
 },
 {
  "name": "Chopin Park",
  "rating": 3.6,
  "review_count": 5,
  "latitude": 41.943246,
  "longitude": -87.762462,
  "location": {
   "address1": "3420 N Long Ave",
   "address2": "",
   "address3": "",
   "city": "Chicago",
   "zip_code": "60641",
   "country": "US",
   "state": "IL",
   "display_address": [
    "3420 N Long Ave",
    "Chicago, IL 60641"
   ]
  }
 },
 {
  "name": "Paseo Prairie Garden",
  "rating": 4.5,
  "review_count": 4,
  "latitude": 41.9286169,
  "longitude": -87.7079271,
  "location": {
   "address1": "2614 N Kedzie Ave",
   "address2": "",
   "address3": null,
   "city": "Chicago",
   "zip_code": "60647",
   "country": "US",
   "state": "IL",
   "display_address": [
    "2614 N Kedzie Ave",
    "Chicago, IL 60647"
   ]
  }
 },
 {
  "name": "Dearborn Park",
  "rating": 4.3,
  "review_count": 4,
  "latitude": 41.870908,
  "longitude": -87.628973,
  "location": {
   "address1": "865 S Park Ter",
   "address2": "",
   "address3": "",
   "city": "Chicago",
   "zip_code": "60605",
   "country": "US",
   "state": "IL",
   "display_address": [
    "865 S Park Ter",
    "Chicago, IL 60605"
   ]
  }
 },
 {
  "name": "Park 578",
  "rating": 4.5,
  "review_count": 2,
  "latitude": 41.8835993018636,
  "longitude": -87.67482928983299,
  "location": {
   "address1": "1919 W Maypole Ave",
   "address2": "",
   "address3": null,
   "city": "Chicago",
   "zip_code": "60612",
   "country": "US",
   "state": "IL",
   "display_address": [
    "1919 W Maypole Ave",
    "Chicago, IL 60612"
   ]
  }
 },
 {
  "name": "Chicago Peace Garden",
  "rating": 5.0,
  "review_count": 3,
  "latitude": 41.9585845721505,
  "longitude": -87.6455451920629,
  "location": {
   "address1": "Lakefront Trl",
   "address2": "",
   "address3": "",
   "city": "Chicago",
   "zip_code": "60640",
   "country": "US",
   "state": "IL",
   "display_address": [
    "Lakefront Trl",
    "Chicago, IL 60640"
   ]
  }
 },
 {
  "name": "Dunbar Park",
  "rating": 4.0,
  "review_count": 7,
  "latitude": 41.8384480476379,
  "longitude": -87.6192873716354,
  "location": {
   "address1": "300 E 31st St",
   "address2": "",
   "address3": "",
   "city": "Chicago",
   "zip_code": "60616",
   "country": "US",
   "state": "IL",
   "display_address": [
    "300 E 31st St",
    "Chicago, IL 60616"
   ]
  }
 },
 {
  "name": "Mellin Playground",
  "rating": 3.6,
  "review_count": 5,
  "latitude": 41.9832659,
  "longitude": -87.6696309,
  "location": {
   "address1": "5553 N Ashland Ave",
   "address2": "",
   "address3": "",
   "city": "Chicago",
   "zip_code": "60640",
   "country": "US",
   "state": "IL",
   "display_address": [
    "5553 N Ashland Ave",
    "Chicago, IL 60640"
   ]
  }
 },
 {
  "name": "The Mart River Park",
  "rating": 5.0,
  "review_count": 1,
  "latitude": 41.88842105262477,
  "longitude": -87.6354498,
  "location": {
   "address1": "222 Merchandise Mart Plz",
   "address2": "Ste 470",
   "address3": null,
   "city": "Chicago",
   "zip_code": "60654",
   "country": "US",
   "state": "IL",
   "display_address": [
    "222 Merchandise Mart Plz",
    "Ste 470",
    "Chicago, IL 60654"
   ]
  }
 },
 {
  "name": "Atkins Medicinal Plant Garden",
  "rating": 5.0,
  "review_count": 1,
  "latitude": 41.87072,
  "longitude": -87.670799,
  "location": {
   "address1": "833 S Wood St",
   "address2": "",
   "address3": "UIC College of Pharmacy",
   "city": "Chicago",
   "zip_code": "60612",
   "country": "US",
   "state": "IL",
   "display_address": [
    "833 S Wood St",
    "UIC College of Pharmacy",
    "Chicago, IL 60612"
   ]
  }
 },
 {
  "name": "The Paul and Gabriella Rosenbaum Garden",
  "rating": 5.0,
  "review_count": 2,
  "latitude": 41.9008300629614,
  "longitude": -87.6250206493162,
  "location": {
   "address1": "140 E Oak St",
   "address2": "",
   "address3": null,
   "city": "Chicago",
   "zip_code": "60611",
   "country": "US",
   "state": "IL",
   "display_address": [
    "140 E Oak St",
    "Chicago, IL 60611"
   ]
  }
 },
 {
  "name": "South Lakeview Playground Park",
  "rating": 4.0,
  "review_count": 1,
  "latitude": 41.9336491164054,
  "longitude": -87.661602961377,
  "location": {
   "address1": "1300 W Wolfram St",
   "address2": "",
   "address3": null,
   "city": "Chicago",
   "zip_code": "60657",
   "country": "US",
   "state": "IL",
   "display_address": [
    "1300 W Wolfram St",
    "Chicago, IL 60657"
   ]
  }
 },
 {
  "name": "Millennium Monument",
  "rating": 4.0,
  "review_count": 1,
  "latitude": 41.8834,
  "longitude": -87.62246,
  "location": {
   "address1": "201 E Randolph St",
   "address2": "",
   "address3": null,
   "city": "Chicago",
   "zip_code": "60601",
   "country": "US",
   "state": "IL",
   "display_address": [
    "201 E Randolph St",
    "Chicago, IL 60601"
   ]
  }
 },
 {
  "name": "Chicago Park District: Altgeld Park",
  "rating": 3.5,
  "review_count": 2,
  "latitude": 41.8747256,
  "longitude": -87.6935411,
  "location": {
   "address1": "515 S Washtenaw Ave",
   "address2": "",
   "address3": "",
   "city": "Chicago",
   "zip_code": "60612",
   "country": "US",
   "state": "IL",
   "display_address": [
    "515 S Washtenaw Ave",
    "Chicago, IL 60612"
   ]
  }
 },
 {
  "name": "Fire Station Park",
  "rating": 4.0,
  "review_count": 1,
  "latitude": 41.9175953325636,
  "longitude": -87.6438574189733,
  "location": {
   "address1": "1990 N Larrabee St",
   "address2": "",
   "address3": "",
   "city": "Chicago",
   "zip_code": "60614",
   "country": "US",
   "state": "IL",
   "display_address": [
    "1990 N Larrabee St",
    "Chicago, IL 60614"
   ]
  }
 },
 {
  "name": "Battle of Fort Dearborn Park",
  "rating": 5.0,
  "review_count": 1,
  "latitude": 41.859859,
  "longitude": -87.620368,
  "location": {
   "address1": "1801 S Calumet Ave",
   "address2": "",
   "address3": "",
   "city": "Chicago",
   "zip_code": "60616",
   "country": "US",
   "state": "IL",
   "display_address": [
    "1801 S Calumet Ave",
    "Chicago, IL 60616"
   ]
  }
 },
 {
  "name": "Chicago Park District - Lawler Park",
  "rating": 5.0,
  "review_count": 1,
  "latitude": 41.813528,
  "longitude": -87.751377,
  "location": {
   "address1": "5210 W 64th St",
   "address2": "",
   "address3": "",
   "city": "Chicago",
   "zip_code": "60638",
   "country": "US",
   "state": "IL",
   "display_address": [
    "5210 W 64th St",
    "Chicago, IL 60638"
   ]
  }
 },
 {
  "name": "Sunshine Playground",
  "rating": 4.5,
  "review_count": 2,
  "latitude": 41.930066,
  "longitude": -87.638014,
  "location": {
   "address1": "530 W Diversey Pkwy",
   "address2": "",
   "address3": null,
   "city": "Chicago",
   "zip_code": "60657",
   "country": "US",
   "state": "IL",
   "display_address": [
    "530 W Diversey Pkwy",
    "Chicago, IL 60657"
   ]
  }
 },
 {
  "name": "Mandrake Park",
  "rating": 4.0,
  "review_count": 1,
  "latitude": 41.82314834292725,
  "longitude": -87.6072208,
  "location": {
   "address1": "3858 S Cottage Grove Ave",
   "address2": "",
   "address3": null,
   "city": "Chicago",
   "zip_code": "60653",
   "country": "US",
   "state": "IL",
   "display_address": [
    "3858 S Cottage Grove Ave",
    "Chicago, IL 60653"
   ]
  }
 },
 {
  "name": "Archer Park",
  "rating": 3.5,
  "review_count": 4,
  "latitude": 41.8038737028837,
  "longitude": -87.7356348931789,
  "location": {
   "address1": "4901 S Kilbourn Av",
   "address2": "",
   "address3": "",
   "city": "Chicago",
   "zip_code": "60632",
   "country": "US",
   "state": "IL",
   "display_address": [
    "4901 S Kilbourn Av",
    "Chicago, IL 60632"
   ]
  }
 },
 {
  "name": "Goudy Square Park",
  "rating": 4.0,
  "review_count": 2,
  "latitude": 41.90558145184987,
  "longitude": -87.62682666642387,
  "location": {
   "address1": "1249 N Astor St",
   "address2": "",
   "address3": null,
   "city": "Chicago",
   "zip_code": "60610",
   "country": "US",
   "state": "IL",
   "display_address": [
    "1249 N Astor St",
    "Chicago, IL 60610"
   ]
  }
 },
 {
  "name": "Stanton Park - Chicago Park District",
  "rating": 4.0,
  "review_count": 1,
  "latitude": 41.9051849,
  "longitude": -87.6436865,
  "location": {
   "address1": "618 W Scott St",
   "address2": "",
   "address3": "",
   "city": "Chicago",
   "zip_code": "60610",
   "country": "US",
   "state": "IL",
   "display_address": [
    "618 W Scott St",
    "Chicago, IL 60610"
   ]
  }
 },
 {
  "name": "El Paseo Community Garden",
  "rating": 5.0,
  "review_count": 1,
  "latitude": 41.85481052868795,
  "longitude": -87.64984022326702,
  "location": {
   "address1": "944 West 21st St",
   "address2": "",
   "address3": null,
   "city": "Chicago",
   "zip_code": "60608",
   "country": "US",
   "state": "IL",
   "display_address": [
    "944 West 21st St",
    "Chicago, IL 60608"
   ]
  }
 },
 {
  "name": "Warner Park and Gardens",
  "rating": 4.0,
  "review_count": 2,
  "latitude": 41.9571905,
  "longitude": -87.6660766,
  "location": {
   "address1": "1444 W Warner Ave",
   "address2": "",
   "address3": "",
   "city": "Chicago",
   "zip_code": "60613",
   "country": "US",
   "state": "IL",
   "display_address": [
    "1444 W Warner Ave",
    "Chicago, IL 60613"
   ]
  }
 },
 {
  "name": "Cascade Park",
  "rating": 5.0,
  "review_count": 2,
  "latitude": 41.886053568214315,
  "longitude": -87.61553328484295,
  "location": {
   "address1": "200 N Harbor Dr",
   "address2": "",
   "address3": null,
   "city": "Chicago",
   "zip_code": "60601",
   "country": "US",
   "state": "IL",
   "display_address": [
    "200 N Harbor Dr",
    "Chicago, IL 60601"
   ]
  }
 },
 {
  "name": "Polonia Triangle",
  "rating": 3.0,
  "review_count": 1,
  "latitude": 41.9035648,
  "longitude": -87.66790069999999,
  "location": {
   "address1": "1200 N Milwaukee Ave",
   "address2": "",
   "address3": null,
   "city": "Chicago",
   "zip_code": "60622",
   "country": "US",
   "state": "IL",
   "display_address": [
    "1200 N Milwaukee Ave",
    "Chicago, IL 60622"
   ]
  }
 },
 {
  "name": "Gladstone Park -- Chicago Park District",
  "rating": 4.1,
  "review_count": 7,
  "latitude": 41.9789012521505,
  "longitude": -87.7731999009848,
  "location": {
   "address1": "5421 N Menard Ave",
   "address2": "",
   "address3": "",
   "city": "Chicago",
   "zip_code": "60630",
   "country": "US",
   "state": "IL",
   "display_address": [
    "5421 N Menard Ave",
    "Chicago, IL 60630"
   ]
  }
 },
 {
  "name": "Clover Playlot Park",
  "rating": 4.0,
  "review_count": 1,
  "latitude": 41.9221316493369,
  "longitude": -87.663465072808,
  "location": {
   "address1": "2210 N. Southport Ave.",
   "address2": "",
   "address3": null,
   "city": "Chicago",
   "zip_code": "60614",
   "country": "US",
   "state": "IL",
   "display_address": [
    "2210 N. Southport Ave.",
    "Chicago, IL 60614"
   ]
  }
 },
 {
  "name": "Bloomingdale Trail Park",
  "rating": 0.0,
  "review_count": 0,
  "latitude": 41.9142935244831,
  "longitude": -87.67025757042737,
  "location": {
   "address1": "1600-3000 W Bloomingdale",
   "address2": null,
   "address3": null,
   "city": "Chicago",
   "zip_code": "60647",
   "country": "US",
   "state": "IL",
   "display_address": [
    "1600-3000 W Bloomingdale",
    "Chicago, IL 60647"
   ]
  }
 },
 {
  "name": "Simons Park - Chicago Park District",
  "rating": 3.5,
  "review_count": 2,
  "latitude": 41.9107598,
  "longitude": -87.7151178,
  "location": {
   "address1": "1640 N Drake Ave",
   "address2": "",
   "address3": "",
   "city": "Chicago",
   "zip_code": "60647",
   "country": "US",
   "state": "IL",
   "display_address": [
    "1640 N Drake Ave",
    "Chicago, IL 60647"
   ]
  }
 },
 {
  "name": "Cedar Playlot Park",
  "rating": 4.0,
  "review_count": 1,
  "latitude": 41.978618,
  "longitude": -87.6578917,
  "location": {
   "address1": "5311 N Winthrop Ave",
   "address2": "",
   "address3": null,
   "city": "Chicago",
   "zip_code": "60640",
   "country": "US",
   "state": "IL",
   "display_address": [
    "5311 N Winthrop Ave",
    "Chicago, IL 60640"
   ]
  }
 },
 {
  "name": "Julia Porter Park",
  "rating": 5.0,
  "review_count": 2,
  "latitude": 41.9257733970881,
  "longitude": -87.6493026316166,
  "location": {
   "address1": "2400 North Lincoln Ave",
   "address2": "",
   "address3": "",
   "city": "Chicago",
   "zip_code": "60614",
   "country": "US",
   "state": "IL",
   "display_address": [
    "2400 North Lincoln Ave",
    "Chicago, IL 60614"
   ]
  }
 },
 {
  "name": "Lincoln Park Conservatory",
  "rating": 0.0,
  "review_count": 0,
  "latitude": 41.924292189100555,
  "longitude": -87.63521917055344,
  "location": {
   "address1": "2430 North Cannon Dr",
   "address2": null,
   "address3": null,
   "city": "Chicago",
   "zip_code": "60614",
   "country": "US",
   "state": "IL",
   "display_address": [
    "2430 North Cannon Dr",
    "Chicago, IL 60614"
   ]
  }
 },
 {
  "name": "Kennicott Park",
  "rating": 4.0,
  "review_count": 1,
  "latitude": 41.81428,
  "longitude": -87.597379,
  "location": {
   "address1": "4434 S Lake Park Ave",
   "address2": "",
   "address3": "Chicago Park District",
   "city": "Chicago",
   "zip_code": "60653",
   "country": "US",
   "state": "IL",
   "display_address": [
    "4434 S Lake Park Ave",
    "Chicago Park District",
    "Chicago, IL 60653"
   ]
  }
 },
 {
  "name": "Cragin Park",
  "rating": 4.0,
  "review_count": 1,
  "latitude": 41.9280043244362,
  "longitude": -87.7587012201548,
  "location": {
   "address1": "2611 N Lockwood Ave",
   "address2": "",
   "address3": null,
   "city": "Chicago",
   "zip_code": "60639",
   "country": "US",
   "state": "IL",
   "display_address": [
    "2611 N Lockwood Ave",
    "Chicago, IL 60639"
   ]
  }
 },
 {
  "name": "Jacob Park",
  "rating": 5.0,
  "review_count": 1,
  "latitude": 41.9666391200206,
  "longitude": -87.6983099430799,
  "location": {
   "address1": "4676 N Virginia Ave",
   "address2": "",
   "address3": "",
   "city": "Chicago",
   "zip_code": "60625",
   "country": "US",
   "state": "IL",
   "display_address": [
    "4676 N Virginia Ave",
    "Chicago, IL 60625"
   ]
  }
 },
 {
  "name": "Hudson Chess Park",
  "rating": 4.5,
  "review_count": 2,
  "latitude": 41.91491763460279,
  "longitude": -87.63965823683088,
  "location": {
   "address1": "412 W Menomonee St",
   "address2": "",
   "address3": null,
   "city": "Chicago",
   "zip_code": "60614",
   "country": "US",
   "state": "IL",
   "display_address": [
    "412 W Menomonee St",
    "Chicago, IL 60614"
   ]
  }
 },
 {
  "name": "Stevenson Park",
  "rating": 4.8,
  "review_count": 5,
  "latitude": 41.887778977071,
  "longitude": -87.778457654245,
  "location": {
   "address1": "49 Lake St",
   "address2": "",
   "address3": "",
   "city": "Oak Park",
   "zip_code": "60302",
   "country": "US",
   "state": "IL",
   "display_address": [
    "49 Lake St",
    "Oak Park, IL 60302"
   ]
  }
 },
 {
  "name": "Park #571",
  "rating": 4.0,
  "review_count": 1,
  "latitude": 41.8438965255301,
  "longitude": -87.6626955292912,
  "location": {
   "address1": "2754 South Eleanor St",
   "address2": "",
   "address3": null,
   "city": "Chicago",
   "zip_code": "60608",
   "country": "US",
   "state": "IL",
   "display_address": [
    "2754 South Eleanor St",
    "Chicago, IL 60608"
   ]
  }
 },
 {
  "name": "Mary Berkemeier Quinn Park-of-Trees",
  "rating": 4.0,
  "review_count": 1,
  "latitude": 41.9953499,
  "longitude": -87.7705078,
  "location": {
   "address1": "6239 N Mcclellan Ave",
   "address2": "",
   "address3": "",
   "city": "Chicago",
   "zip_code": "60646",
   "country": "US",
   "state": "IL",
   "display_address": [
    "6239 N Mcclellan Ave",
    "Chicago, IL 60646"
   ]
  }
 },
 {
  "name": "Kelvyn Park",
  "rating": 3.5,
  "review_count": 2,
  "latitude": 41.92968887129189,
  "longitude": -87.7381063,
  "location": {
   "address1": "4438 W Wrightwood Ave",
   "address2": "",
   "address3": "",
   "city": "Chicago",
   "zip_code": "60639",
   "country": "US",
   "state": "IL",
   "display_address": [
    "4438 W Wrightwood Ave",
    "Chicago, IL 60639"
   ]
  }
 },
 {
  "name": "Chicago Park District",
  "rating": 4.0,
  "review_count": 1,
  "latitude": 42.00368958266341,
  "longitude": -87.6846188426492,
  "location": {
   "address1": "2045 W Pratt Blvd",
   "address2": "",
   "address3": "",
   "city": "Chicago",
   "zip_code": "60645",
   "country": "US",
   "state": "IL",
   "display_address": [
    "2045 W Pratt Blvd",
    "Chicago, IL 60645"
   ]
  }
 },
 {
  "name": "Chicago Park District - Donovan Park",
  "rating": 4.0,
  "review_count": 1,
  "latitude": 41.82804,
  "longitude": -87.6477949,
  "location": {
   "address1": "3620 S Lituanica Ave",
   "address2": "",
   "address3": "",
   "city": "Chicago",
   "zip_code": "60609",
   "country": "US",
   "state": "IL",
   "display_address": [
    "3620 S Lituanica Ave",
    "Chicago, IL 60609"
   ]
  }
 },
 {
  "name": "Chicago Park District - Wildwood Park",
  "rating": 4.0,
  "review_count": 1,
  "latitude": 42.00762355644789,
  "longitude": -87.78033010002406,
  "location": {
   "address1": "6950 N Hiawatha Ave",
   "address2": "",
   "address3": "",
   "city": "Chicago",
   "zip_code": "60646",
   "country": "US",
   "state": "IL",
   "display_address": [
    "6950 N Hiawatha Ave",
    "Chicago, IL 60646"
   ]
  }
 },
 {
  "name": "Lindberg Park",
  "rating": 4.3,
  "review_count": 3,
  "latitude": 41.9060220423653,
  "longitude": -87.8022730350494,
  "location": {
   "address1": "1151 N Marion St",
   "address2": "",
   "address3": "",
   "city": "Oak Park",
   "zip_code": "60302",
   "country": "US",
   "state": "IL",
   "display_address": [
    "1151 N Marion St",
    "Oak Park, IL 60302"
   ]
  }
 },
 {
  "name": "Merrimac Park",
  "rating": 3.8,
  "review_count": 5,
  "latitude": 41.9520350379492,
  "longitude": -87.7851896623587,
  "location": {
   "address1": "6343 W Irving Park Rd",
   "address2": "",
   "address3": "",
   "city": "Chicago",
   "zip_code": "60634",
   "country": "US",
   "state": "IL",
   "display_address": [
    "6343 W Irving Park Rd",
    "Chicago, IL 60634"
   ]
  }
 },
 {
  "name": "Piotrowski Park",
  "rating": 4.0,
  "review_count": 1,
  "latitude": 41.8366751,
  "longitude": -87.7309961,
  "location": {
   "address1": "4247 W 31st St",
   "address2": "",
   "address3": "",
   "city": "Chicago",
   "zip_code": "60623",
   "country": "US",
   "state": "IL",
   "display_address": [
    "4247 W 31st St",
    "Chicago, IL 60623"
   ]
  }
 },
 {
  "name": "Supera Playlot Park",
  "rating": 5.0,
  "review_count": 1,
  "latitude": 41.92801,
  "longitude": -87.6586949,
  "location": {
   "address1": "2528 N Racine Ave",
   "address2": "",
   "address3": "",
   "city": "Chicago",
   "zip_code": "60614",
   "country": "US",
   "state": "IL",
   "display_address": [
    "2528 N Racine Ave",
    "Chicago, IL 60614"
   ]
  }
 },
 {
  "name": "Bosley Playground - Chicago Park District",
  "rating": 5.0,
  "review_count": 2,
  "latitude": 41.838830200472344,
  "longitude": -87.65343668852417,
  "location": {
   "address1": "3044 S Bonfield St",
   "address2": "",
   "address3": "",
   "city": "Chicago",
   "zip_code": "60608",
   "country": "US",
   "state": "IL",
   "display_address": [
    "3044 S Bonfield St",
    "Chicago, IL 60608"
   ]
  }
 },
 {
  "name": "Chicago Park District - Vittum Park",
  "rating": 3.0,
  "review_count": 6,
  "latitude": 41.803005,
  "longitude": -87.748347,
  "location": {
   "address1": "5010 W 50th St",
   "address2": "",
   "address3": "",
   "city": "Chicago",
   "zip_code": "60638",
   "country": "US",
   "state": "IL",
   "display_address": [
    "5010 W 50th St",
    "Chicago, IL 60638"
   ]
  }
 },
 {
  "name": "Humbert Park",
  "rating": 5.0,
  "review_count": 2,
  "latitude": 41.83831111389,
  "longitude": -87.6429576295452,
  "location": {
   "address1": "3050 S Lowe Ave",
   "address2": "",
   "address3": "",
   "city": "Chicago",
   "zip_code": "60616",
   "country": "US",
   "state": "IL",
   "display_address": [
    "3050 S Lowe Ave",
    "Chicago, IL 60616"
   ]
  }
 },
 {
  "name": "Ravenswood Manor Park",
  "rating": 4.0,
  "review_count": 3,
  "latitude": 41.965577,
  "longitude": -87.70072,
  "location": {
   "address1": "4626 N Manor Ave",
   "address2": "",
   "address3": "",
   "city": "Chicago",
   "zip_code": "60625",
   "country": "US",
   "state": "IL",
   "display_address": [
    "4626 N Manor Ave",
    "Chicago, IL 60625"
   ]
  }
 },
 {
  "name": "De Julio Playlot Park",
  "rating": 4.0,
  "review_count": 2,
  "latitude": 41.9918741930408,
  "longitude": -87.7524667450332,
  "location": {
   "address1": "6056 N Landers Ave",
   "address2": "",
   "address3": null,
   "city": "Chicago",
   "zip_code": "60646",
   "country": "US",
   "state": "IL",
   "display_address": [
    "6056 N Landers Ave",
    "Chicago, IL 60646"
   ]
  }
 },
 {
  "name": "Chicago Park District",
  "rating": 0.0,
  "review_count": 0,
  "latitude": 41.9033470153809,
  "longitude": -87.6863327026367,
  "location": {
   "address1": "2334 W Division St",
   "address2": null,
   "address3": null,
   "city": "Chicago",
   "zip_code": "60607",
   "country": "US",
   "state": "IL",
   "display_address": [
    "2334 W Division St",
    "Chicago, IL 60607"
   ]
  }
 },
 {
  "name": "Logan Square Skate Park",
  "rating": 3.0,
  "review_count": 2,
  "latitude": 41.9287417,
  "longitude": -87.6904942,
  "location": {
   "address1": "2430 W Logan Blvd",
   "address2": "",
   "address3": "",
   "city": "Chicago",
   "zip_code": "60647",
   "country": "US",
   "state": "IL",
   "display_address": [
    "2430 W Logan Blvd",
    "Chicago, IL 60647"
   ]
  }
 },
 {
  "name": "Bell Park",
  "rating": 3.3,
  "review_count": 4,
  "latitude": 41.9347538,
  "longitude": -87.7957588,
  "location": {
   "address1": "3020 N Oak Park Ave",
   "address2": "",
   "address3": "",
   "city": "Chicago",
   "zip_code": "60634",
   "country": "US",
   "state": "IL",
   "display_address": [
    "3020 N Oak Park Ave",
    "Chicago, IL 60634"
   ]
  }
 },
 {
  "name": "Taylor Park",
  "rating": 3.8,
  "review_count": 4,
  "latitude": 41.9028120546127,
  "longitude": -87.7855789661407,
  "location": {
   "address1": "400 W Division St",
   "address2": "",
   "address3": "",
   "city": "Oak Park",
   "zip_code": "60302",
   "country": "US",
   "state": "IL",
   "display_address": [
    "400 W Division St",
    "Oak Park, IL 60302"
   ]
  }
 },
 {
  "name": "Chicago Park District - Brighton Park",
  "rating": 5.0,
  "review_count": 1,
  "latitude": 41.80582,
  "longitude": -87.68459,
  "location": {
   "address1": "4830 S Western Ave",
   "address2": "",
   "address3": null,
   "city": "Chicago",
   "zip_code": "60609",
   "country": "US",
   "state": "IL",
   "display_address": [
    "4830 S Western Ave",
    "Chicago, IL 60609"
   ]
  }
 },
 {
  "name": "McInerney Park",
  "rating": 5.0,
  "review_count": 1,
  "latitude": 41.8124306201935,
  "longitude": -87.6445966959,
  "location": {
   "address1": "745 W 45th St",
   "address2": "",
   "address3": "",
   "city": "Chicago",
   "zip_code": "60609",
   "country": "US",
   "state": "IL",
   "display_address": [
    "745 W 45th St",
    "Chicago, IL 60609"
   ]
  }
 },
 {
  "name": "Maplewood Playlot Park",
  "rating": 3.5,
  "review_count": 2,
  "latitude": 41.9113211,
  "longitude": -87.691094,
  "location": {
   "address1": "1640 N Maplewood Dr",
   "address2": "",
   "address3": "",
   "city": "Chicago",
   "zip_code": "60647",
   "country": "US",
   "state": "IL",
   "display_address": [
    "1640 N Maplewood Dr",
    "Chicago, IL 60647"
   ]
  }
 },
 {
  "name": "Fuller Park",
  "rating": 5.0,
  "review_count": 1,
  "latitude": 41.812264,
  "longitude": -87.634616,
  "location": {
   "address1": "331 W 45th St",
   "address2": "",
   "address3": "",
   "city": "Chicago",
   "zip_code": "60609",
   "country": "US",
   "state": "IL",
   "display_address": [
    "331 W 45th St",
    "Chicago, IL 60609"
   ]
  }
 },
 {
  "name": "Indian Road Park",
  "rating": 4.0,
  "review_count": 5,
  "latitude": 41.9928534,
  "longitude": -87.7784156,
  "location": {
   "address1": "6010 W Matson Ave",
   "address2": "",
   "address3": "",
   "city": "Chicago",
   "zip_code": "60646",
   "country": "US",
   "state": "IL",
   "display_address": [
    "6010 W Matson Ave",
    "Chicago, IL 60646"
   ]
  }
 },
 {
  "name": "Wild Mile",
  "rating": 0.0,
  "review_count": 0,
  "latitude": 41.906666,
  "longitude": -87.651041,
  "location": {
   "address1": "905 W Eastman St",
   "address2": "",
   "address3": null,
   "city": "Chicago",
   "zip_code": "60642",
   "country": "US",
   "state": "IL",
   "display_address": [
    "905 W Eastman St",
    "Chicago, IL 60642"
   ]
  }
 },
 {
  "name": "Chicago Park District",
  "rating": 0.0,
  "review_count": 0,
  "latitude": 41.8637003749609,
  "longitude": -87.6092505455017,
  "location": {
   "address1": "1362 S Lynn White Dr",
   "address2": null,
   "address3": null,
   "city": "Chicago",
   "zip_code": "60605",
   "country": "US",
   "state": "IL",
   "display_address": [
    "1362 S Lynn White Dr",
    "Chicago, IL 60605"
   ]
  }
 },
 {
  "name": "Margeret T Burroughs Beach",
  "rating": 4.0,
  "review_count": 1,
  "latitude": 41.83928624082563,
  "longitude": -87.60671800885679,
  "location": {
   "address1": "3100 S Lake Shore Dr",
   "address2": "",
   "address3": null,
   "city": "Chicago",
   "zip_code": "60616",
   "country": "US",
   "state": "IL",
   "display_address": [
    "3100 S Lake Shore Dr",
    "Chicago, IL 60616"
   ]
  }
 },
 {
  "name": "Dog Pub",
  "rating": 0.0,
  "review_count": 0,
  "latitude": 41.980999,
  "longitude": -87.676031,
  "location": {
   "address1": "5435 N Wolcott Ave",
   "address2": null,
   "address3": "",
   "city": "Chicago",
   "zip_code": "60640",
   "country": "US",
   "state": "IL",
   "display_address": [
    "5435 N Wolcott Ave",
    "Chicago, IL 60640"
   ]
  }
 },
 {
  "name": "Lakefront Park",
  "rating": 0.0,
  "review_count": 0,
  "latitude": 41.900287,
  "longitude": -87.623386,
  "location": {
   "address1": "100 E Lake Shore Dr",
   "address2": "",
   "address3": null,
   "city": "Chicago",
   "zip_code": "60611",
   "country": "US",
   "state": "IL",
   "display_address": [
    "100 E Lake Shore Dr",
    "Chicago, IL 60611"
   ]
  }
 },
 {
  "name": "Indiana & 16th Dog Park",
  "rating": 3.3,
  "review_count": 6,
  "latitude": 41.86025,
  "longitude": -87.62238,
  "location": {
   "address1": "S Indiana Ave & E 16th St",
   "address2": "",
   "address3": "",
   "city": "Chicago",
   "zip_code": "60605",
   "country": "US",
   "state": "IL",
   "display_address": [
    "S Indiana Ave & E 16th St",
    "Chicago, IL 60605"
   ]
  }
 },
 {
  "name": "Privet Park",
  "rating": 2.0,
  "review_count": 1,
  "latitude": 41.91505906395052,
  "longitude": -87.65341103159236,
  "location": {
   "address1": "1844 N Sheffield Ave",
   "address2": "",
   "address3": null,
   "city": "Chicago",
   "zip_code": "60614",
   "country": "US",
   "state": "IL",
   "display_address": [
    "1844 N Sheffield Ave",
    "Chicago, IL 60614"
   ]
  }
 }
]