[
 {
  "name": "Millennium Park",
  "latitude": 41.88255748421691,
  "longitude": -87.62255156982617,
  "rating": 4.6,
  "review_count": 1456,
  "source": "Yelp"
 },
 {
  "name": "Garfield Park Conservatory",
  "latitude": 41.8864959,
  "longitude": -87.717822,
  "rating": 4.8,
  "review_count": 797,
  "source": "Yelp"
 },
 {
  "name": "Humboldt Park",
  "latitude": 41.905754,
  "longitude": -87.702181,
  "rating": 4.4,
  "review_count": 135,
  "source": "Yelp"
 },
 {
  "name": "Lincoln Park Conservatory",
  "latitude": 41.92433507444941,
  "longitude": -87.6352185,
  "rating": 4.6,
  "review_count": 304,
  "source": "Yelp"
 },
 {
  "name": "The 606 - Bloomingdale Trail",
  "latitude": 41.9142769731426,
  "longitude": -87.6689563391785,
  "rating": 4.2,
  "review_count": 175,
  "source": "Yelp"
 },
 {
  "name": "Chicago Park District - OZ PARK",
  "latitude": 41.9209,
  "longitude": -87.64566,
  "rating": 4.5,
  "review_count": 119,
  "source": "Yelp"
 },
 {
  "name": "Maggie Daley Park - Chicago Park District",
  "latitude": 41.882361,
  "longitude": -87.61944,
  "rating": 4.5,
  "review_count": 222,
  "source": "Yelp"
 },
 {
  "name": "Montrose Dog Beach",
  "latitude": 41.968549496721856,
  "longitude": -87.64338043313141,
  "rating": 4.4,
  "review_count": 295,
  "source": "Yelp"
 },
 {
  "name": "Wicker Park - Chicago Park District",
  "latitude": 41.9077397733836,
  "longitude": -87.6764158224562,
  "rating": 3.8,
  "review_count": 121,
  "source": "Yelp"
 },
 {
  "name": "Alfred Caldwell Lily Pool",
  "latitude": 41.9248276,
  "longitude": -87.6340494,
  "rating": 4.8,
  "review_count": 87,
  "source": "Yelp"
 },
 {
  "name": "Grant Park",
  "latitude": 41.8758205085886,
  "longitude": -87.6189493035277,
  "rating": 4.6,
  "review_count": 216,
  "source": "Yelp"
 },
 {
  "name": "Nature Boardwalk at Lincoln Park Zoo",
  "latitude": 41.9178065834321,
  "longitude": -87.6331114768982,
  "rating": 4.7,
  "review_count": 34,
  "source": "Yelp"
 },
 {
  "name": "Doggy Paddle Aquatic Center For Dogs",
  "latitude": 41.914667,
  "longitude": -87.663309,
  "rating": 4.1,
  "review_count": 125,
  "source": "Yelp"
 },
 {
  "name": "Lincoln Park",
  "latitude": 41.938925247844,
  "longitude": -87.63694678506332,
  "rating": 4.4,
  "review_count": 102,
  "source": "Yelp"
 },
 {
  "name": "Washington Square Park",
  "latitude": 41.8999342,
  "longitude": -87.6311388,
  "rating": 4.3,
  "review_count": 34,
  "source": "Yelp"
 },
 {
  "name": "Lake Shore Park",
  "latitude": 41.8969333,
  "longitude": -87.6173388,
  "rating": 4.3,
  "review_count": 24,
  "source": "Yelp"
 },
 {
  "name": "Mariano Park",
  "latitude": 41.90181,
  "longitude": -87.628199,
  "rating": 4.4,
  "review_count": 21,
  "source": "Yelp"
 },
 {
  "name": "Ping Tom Memorial Park",
  "latitude": 41.85695918314,
  "longitude": -87.634402088742,
  "rating": 4.3,
  "review_count": 84,
  "source": "Yelp"
 },
 {
  "name": "Smith Park - Chicago Park District",
  "latitude": 41.893012707026635,
  "longitude": -87.69051985280817,
  "rating": 4.3,
  "review_count": 18,
  "source": "Yelp"
 },
 {
  "name": "Mary Bartleme Park",
  "latitude": 41.8801605,
  "longitude": -87.6506214,
  "rating": 4.2,
  "review_count": 40,
  "source": "Yelp"
 },
 {
  "name": "Chicago Park District - River Park",
  "latitude": 41.974111,
  "longitude": -87.7014049,
  "rating": 3.8,
  "review_count": 29,
  "source": "Yelp"
 },
 {
  "name": "Kosciuszko Park",
  "latitude": 41.9307066500187,
  "longitude": -87.7233094722033,
  "rating": 3.8,
  "review_count": 18,
  "source": "Yelp"
 },
 {
  "name": "Grant Park Rose Garden",
  "latitude": 41.87831811,
  "longitude": -87.62033096,
  "rating": 4.8,
  "review_count": 8,
  "source": "Yelp"
 },
 {
  "name": "Union Park",
  "latitude": 41.884073,
  "longitude": -87.665419,
  "rating": 3.4,
  "review_count": 20,
  "source": "Yelp"
 },
 {
  "name": "Clarendon Park",
  "latitude": 41.9631777568729,
  "longitude": -87.648799046513,
  "rating": 4.7,
  "review_count": 7,
  "source": "Yelp"
 },
 {
  "name": "Berger Park",
  "latitude": 41.9947845,
  "longitude": -87.6553686,
  "rating": 4.2,
  "review_count": 24,
  "source": "Yelp"
 },
 {
  "name": "Haas Park",
  "latitude": 41.9249956,
  "longitude": -87.6951523,
  "rating": 4.6,
  "review_count": 10,
  "source": "Yelp"
 },
 {
  "name": "Independence Park",
  "latitude": 41.95262142119797,
  "longitude": -87.72360828543947,
  "rating": 3.9,
  "review_count": 23,
  "source": "Yelp"
 },
 {
  "name": "Chicago Park District - Jefferson Memorial Park",
  "latitude": 41.96850553544424,
  "longitude": -87.7636825189759,
  "rating": 4.1,
  "review_count": 17,
  "source": "Yelp"
 },
 {
  "name": "North Pond Nature Sanctuary",
  "latitude": 41.9280803527177,
  "longitude": -87.6369094848633,
  "rating": 4.5,
  "review_count": 11,
  "source": "Yelp"
 },
 {
  "name": "Hamlin Park",
  "latitude": 41.9365766644478,
  "longitude": -87.680624127388,
  "rating": 3.8,
  "review_count": 39,
  "source": "Yelp"
 },
 {
  "name": "Churchill Field Park",
  "latitude": 41.914647,
  "longitude": -87.6773659,
  "rating": 3.4,
  "review_count": 10,
  "source": "Yelp"
 },
 {
  "name": "Logan Square Dog Park",
  "latitude": 41.92749,
  "longitude": -87.688118,
  "rating": 4.4,
  "review_count": 15,
  "source": "Yelp"
 },
 {
  "name": "Pulaski Park Fieldhouse",
  "latitude": 41.9069151,
  "longitude": -87.6636025,
  "rating": 4.4,
  "review_count": 11,
  "source": "Yelp"
 },
 {
  "name": "Cricket Hill",
  "latitude": 41.9643087210033,
  "longitude": -87.6425743103027,
  "rating": 4.2,
  "review_count": 11,
  "source": "Yelp"
 },
 {
  "name": "Mckinley Park",
  "latitude": 41.824609522162426,
  "longitude": -87.67987420449731,
  "rating": 4.2,
  "review_count": 11,
  "source": "Yelp"
 },
 {
  "name": "The Green At 320",
  "latitude": 41.87702,
  "longitude": -87.64036,
  "rating": 5.0,
  "review_count": 3,
  "source": "Yelp"
 },
 {
  "name": "Chase Park",
  "latitude": 41.96718,
  "longitude": -87.6692651,
  "rating": 3.8,
  "review_count": 29,
  "source": "Yelp"
 },
 {
  "name": "Brands Park",
  "latitude": 41.9405269,
  "longitude": -87.6997038,
  "rating": 3.9,
  "review_count": 8,
  "source": "Yelp"
 },
 {
  "name": "Gold Star Families Memorial and Park",
  "latitude": 41.86243789218674,
  "longitude": -87.61405085003545,
  "rating": 4.9,
  "review_count": 7,
  "source": "Yelp"
 },
 {
  "name": "Ridgeland Common Recreation Complex",
  "latitude": 41.8879934474814,
  "longitude": -87.7872848510742,
  "rating": 4.1,
  "review_count": 21,
  "source": "Yelp"
 },
 {
  "name": "Lincoln Park South Lagoon",
  "latitude": 41.922772046001,
  "longitude": -87.6315343379974,
  "rating": 4.8,
  "review_count": 4,
  "source": "Yelp"
 },
 {
  "name": "Waveland Park",
  "latitude": 41.9493308,
  "longitude": -87.642858,
  "rating": 4.5,
  "review_count": 11,
  "source": "Yelp"
 },
 {
  "name": "Hamlin Dog Park",
  "latitude": 41.9365766644478,
  "longitude": -87.680624127388,
  "rating": 3.4,
  "review_count": 38,
  "source": "Yelp"
 },
 {
  "name": "Seward Park - Chicago Park District",
  "latitude": 41.90342097771012,
  "longitude": -87.63834708650535,
  "rating": 3.7,
  "review_count": 7,
  "source": "Yelp"
 },
 {
  "name": "Burnham Skate Park",
  "latitude": 41.856007266733506,
  "longitude": -87.61585614897473,
  "rating": 4.5,
  "review_count": 6,
  "source": "Yelp"
 },
 {
  "name": "Thillens Stadium",
  "latitude": 41.9975501,
  "longitude": -87.7094449,
  "rating": 4.2,
  "review_count": 13,
  "source": "Yelp"
 },
 {
  "name": "Julia de Burgos Park",
  "latitude": 41.913918,
  "longitude": -87.704811,
  "rating": 4.8,
  "review_count": 4,
  "source": "Yelp"
 },
 {
  "name": "Jane Addams Memorial Park",
  "latitude": 41.89238090704662,
  "longitude": -87.61277507382702,
  "rating": 3.8,
  "review_count": 5,
  "source": "Yelp"
 },
 {
  "name": "Jonquil Park",
  "latitude": 41.928615,
  "longitude": -87.654724,
  "rating": 4.0,
  "review_count": 13,
  "source": "Yelp"
 },
 {
  "name": "Walsh Park",
  "latitude": 41.9132677,
  "longitude": -87.6678549,
  "rating": 4.0,
  "review_count": 8,
  "source": "Yelp"
 },
 {
  "name": "Dvorak Park",
  "latitude": 41.85432992026175,
  "longitude": -87.6539074,
  "rating": 4.0,
  "review_count": 9,
  "source": "Yelp"
 },
 {
  "name": "Polk Bros Park",
  "latitude": 41.8916138,
  "longitude": -87.6078987,
  "rating": 4.5,
  "review_count": 6,
  "source": "Yelp"
 },
 {
  "name": "Margate Park",
  "latitude": 41.97209895881035,
  "longitude": -87.64977439158547,
  "rating": 3.5,
  "review_count": 19,
  "source": "Yelp"
 },
 {
  "name": "Warren Park",
  "latitude": 42.00149,
  "longitude": -87.6898351,
  "rating": 4.2,
  "review_count": 29,
  "source": "Yelp"
 },
 {
  "name": "Coliseum Park",
  "latitude": 41.8621520464411,
  "longitude": -87.6261552053797,
  "rating": 3.6,
  "review_count": 11,
  "source": "Yelp"
 },
 {
  "name": "Proksa Park",
  "latitude": 41.837525,
  "longitude": -87.8002982,
  "rating": 4.6,
  "review_count": 11,
  "source": "Yelp"
 },
 {
  "name": "Sheil Park",
  "latitude": 41.9454848450727,
  "longitude": -87.663746533707,
  "rating": 3.4,
  "review_count": 11,
  "source": "Yelp"
 },
 {
  "name": "Ohio Place Dog Park",
  "latitude": 41.89257,
  "longitude": -87.6381,
  "rating": 4.0,
  "review_count": 10,
  "source": "Yelp"
 },
 {
  "name": "Sheridan Park",
  "latitude": 41.8701155,
  "longitude": -87.6543549,
  "rating": 4.0,
  "review_count": 3,
  "source": "Yelp"
 },
 {
  "name": "Piazza DiMaggio",
  "latitude": 41.869585054949,
  "longitude": -87.662877075914,
  "rating": 4.1,
  "review_count": 8,
  "source": "Yelp"
 },
 {
  "name": "Addams/Medill Park",
  "latitude": 41.8626823308788,
  "longitude": -87.6631005853415,
  "rating": 5.0,
  "review_count": 1,
  "source": "Yelp"
 },
 {
  "name": "California Park",
  "latitude": 41.951081159659225,
  "longitude": -87.69756151881704,
  "rating": 5.0,
  "review_count": 4,
  "source": "Yelp"
 },
 {
  "name": "Lake Front Path Sledding Hill",
  "latitude": 41.8581999,
  "longitude": -87.61525,
  "rating": 5.0,
  "review_count": 4,
  "source": "Yelp"
 },
 {
  "name": "Lane Beach Park",
  "latitude": 41.9898100846344,
  "longitude": -87.6551176607609,
  "rating": 5.0,
  "review_count": 2,
  "source": "Yelp"
 },
 {
  "name": "Connors Park",
  "latitude": 41.8986533,
  "longitude": -87.6267351,
  "rating": 4.2,
  "review_count": 5,
  "source": "Yelp"
 },
 {
  "name": "Buttercup Playlot Park",
  "latitude": 41.9716962377052,
  "longitude": -87.6548245420371,
  "rating": 3.8,
  "review_count": 5,
  "source": "Yelp"
 },
 {
  "name": "Clemente Park",
  "latitude": 41.903322,
  "longitude": -87.6859255,
  "rating": 4.0,
  "review_count": 1,
  "source": "Yelp"
 },
 {
  "name": "Legion Park",
  "latitude": 41.9851404,
  "longitude": -87.7090925,
  "rating": 4.7,
  "review_count": 6,
  "source": "Yelp"
 },
 {
  "name": "Dunham Park",
  "latitude": 41.965821804457065,
  "longitude": -87.78441194326363,
  "rating": 4.1,
  "review_count": 13,
  "source": "Yelp"
 },
 {
  "name": "West Town Dog Park",
  "latitude": 41.89681805,
  "longitude": -87.67442167,
  "rating": 3.2,
  "review_count": 5,
  "source": "Yelp"
 },
 {
  "name": "Unity Playlot Park",
  "latitude": 41.9299281784101,
  "longitude": -87.7124673128128,
  "rating": 4.2,
  "review_count": 5,
  "source": "Yelp"
 },
 {
  "name": "Ken-Well Park",
  "latitude": 41.934677,
  "longitude": -87.733459,
  "rating": 5.0,
  "review_count": 2,
  "source": "Yelp"
 },
 {
  "name": "Rutherford Sayre Park",
  "latitude": 41.9209938,
  "longitude": -87.7974396,
  "rating": 4.3,
  "review_count": 6,
  "source": "Yelp"
 },
 {
  "name": "Dean Playground Park",
  "latitude": 41.9069,
  "longitude": -87.67085,
  "rating": 4.0,
  "review_count": 1,
  "source": "Yelp"
 },
 {
  "name": "Gross Park",
  "latitude": 41.9686749,
  "longitude": -87.6966985,
  "rating": 3.6,
  "review_count": 5,
  "source": "Yelp"
 },
 {
  "name": "Chopin Park",
  "latitude": 41.943246,
  "longitude": -87.762462,
  "rating": 3.6,
  "review_count": 5,
  "source": "Yelp"
 },
 {
  "name": "Stanton Park",
  "latitude": 41.905972147932,
  "longitude": -87.6442583333334,
  "rating": 5.0,
  "review_count": 1,
  "source": "Yelp"
 },
 {
  "name": "South Lakeview Playground Park",
  "latitude": 41.9336491164054,
  "longitude": -87.661602961377,
  "rating": 4.0,
  "review_count": 1,
  "source": "Yelp"
 },
 {
  "name": "Cancer Survivors Garden",
  "latitude": 41.8836623407769,
  "longitude": -87.6175089577026,
  "rating": 3.7,
  "review_count": 10,
  "source": "Yelp"
 },
 {
  "name": "Bloomingdale Trail Park",
  "latitude": 41.9142935244831,
  "longitude": -87.67025757042737,
  "rating": 0.0,
  "review_count": 0,
  "source": "Yelp"
 },
 {
  "name": "Polonia Triangle",
  "latitude": 41.9035648,
  "longitude": -87.66790069999999,
  "rating": 3.0,
  "review_count": 1,
  "source": "Yelp"
 },
 {
  "name": "Warner Park and Gardens",
  "latitude": 41.9571905,
  "longitude": -87.6660766,
  "rating": 4.0,
  "review_count": 2,
  "source": "Yelp"
 },
 {
  "name": "Park #571",
  "latitude": 41.8438965255301,
  "longitude": -87.6626955292912,
  "rating": 4.0,
  "review_count": 1,
  "source": "Yelp"
 },
 {
  "name": "Cragin Park",
  "latitude": 41.9280043244362,
  "longitude": -87.7587012201548,
  "rating": 4.0,
  "review_count": 1,
  "source": "Yelp"
 },
 {
  "name": "Simons Park - Chicago Park District",
  "latitude": 41.9107598,
  "longitude": -87.7151178,
  "rating": 3.5,
  "review_count": 2,
  "source": "Yelp"
 },
 {
  "name": "Chicago Park District - Donovan Park",
  "latitude": 41.82804,
  "longitude": -87.6477949,
  "rating": 4.0,
  "review_count": 1,
  "source": "Yelp"
 },
 {
  "name": "Gladstone Park -- Chicago Park District",
  "latitude": 41.9789012521505,
  "longitude": -87.7731999009848,
  "rating": 4.1,
  "review_count": 7,
  "source": "Yelp"
 },
 {
  "name": "De Julio Playlot Park",
  "latitude": 41.9918741930408,
  "longitude": -87.7524667450332,
  "rating": 4.0,
  "review_count": 2,
  "source": "Yelp"
 },
 {
  "name": "Margeret T Burroughs Beach",
  "latitude": 41.83928624082563,
  "longitude": -87.60671800885679,
  "rating": 4.0,
  "review_count": 1,
  "source": "Yelp"
 },
 {
  "name": "Chicago Park District",
  "latitude": 42.00368958266341,
  "longitude": -87.6846188426492,
  "rating": 4.0,
  "review_count": 1,
  "source": "Yelp"
 },
 {
  "name": "Julia Porter Park",
  "latitude": 41.9257733970881,
  "longitude": -87.6493026316166,
  "rating": 5.0,
  "review_count": 2,
  "source": "Yelp"
 },
 {
  "name": "Mary Berkemeier Quinn Park-of-Trees",
  "latitude": 41.9953499,
  "longitude": -87.7705078,
  "rating": 4.0,
  "review_count": 1,
  "source": "Yelp"
 },
 {
  "name": "Cascade Park",
  "latitude": 41.886053568214315,
  "longitude": -87.61553328484295,
  "rating": 5.0,
  "review_count": 2,
  "source": "Yelp"
 },
 {
  "name": "Hudson Chess Park",
  "latitude": 41.91491763460279,
  "longitude": -87.63965823683088,
  "rating": 4.5,
  "review_count": 2,
  "source": "Yelp"
 },
 {
  "name": "Chicago Park District - Vittum Park",
  "latitude": 41.803005,
  "longitude": -87.748347,
  "rating": 3.0,
  "review_count": 6,
  "source": "Yelp"
 },
 {
  "name": "Chicago Park District - Wildwood Park",
  "latitude": 42.00762355644789,
  "longitude": -87.78033010002406,
  "rating": 4.0,
  "review_count": 1,
  "source": "Yelp"
 },
 {
  "name": "Lindberg Park",
  "latitude": 41.9060220423653,
  "longitude": -87.8022730350494,
  "rating": 4.3,
  "review_count": 3,
  "source": "Yelp"
 },
 {
  "name": "Stevenson Park",
  "latitude": 41.887778977071,
  "longitude": -87.778457654245,
  "rating": 4.8,
  "review_count": 5,
  "source": "Yelp"
 },
 {
  "name": "Logan Square Skate Park",
  "latitude": 41.9287417,
  "longitude": -87.6904942,
  "rating": 3.0,
  "review_count": 2,
  "source": "Yelp"
 }
]